[{"Street": "Chalet en Hispanoamerica", "District": "chamartin", "Property_Type": "chalet", "Price": 3250.0, "m2": 211.0, "Rooms": 4, "location": {"type": "Point", "coordinates": [-3.4036, 40.272]}}, {"Street": "Piso en Hispanoamerica", "District": "chamartin", "Property_Type": "flat", "Price": 1350.0, "m2": 92.0, "Rooms": 3, "location": {"type": "Point", "coordinates": [-3.6797153, 40.4552066]}}, {"Street": "Piso en Universidad", "District": "centro", "Property_Type": "flat", "Price": 1300.0, "m2": 75.0, "Rooms": 1, "location": {"type": "Point", "coordinates": [-3.706918, 40.424238]}}, {"Street": "Piso en Goya", "District": "salamanca", "Property_Type": "flat", "Price": 1400.0, "m2": 90.0, "Rooms": 2, "location": {"type": "Point", "coordinates": [-3.6807456, 40.4248439]}}, {"Street": "D\u00faplex en Universidad", "District": "centro", "Property_Type": "duplex", "Price": 850.0, "m2": 45.0, "Rooms": 1, "location": {"type": "Point", "coordinates": [-3.6930632, 40.4219589]}}, {"Street": "Piso en calle Martinez Izquierdo", "District": "salamanca", "Property_Type": "flat", "Price": 1000.0, "m2": 60.0, "Rooms": 2, "location": {"type": "Point", "coordinates": [-3.665254999999999, 40.435471]}}, {"Street": "Piso en calle Francisco Silvela", "District": "salamanca", "Property_Type": "flat", "Price": 1600.0, "m2": 120.0, "Rooms": 3, "location": {"type": "Point", "coordinates": [-3.671107, 40.430508]}}, {"Street": "Apartamento en Embajadores-Lavapi\u00e9s", "District": "centro", "Property_Type": "flat", "Price": 750.0, "m2": 26.0, "Rooms": 1, "location": {"type": "Point", "coordinates": [-3.6981747, 40.4081364]}}, {"Street": "\u00c1tico en Palacio", "District": "centro", "Property_Type": "penthouse", "Price": 3000.0, "m2": 251.0, "Rooms": 4, "location": {"type": "Point", "coordinates": [-3.6971889, 40.4193576]}}, {"Street": "Piso en El Viso", "District": "chamartin", "Property_Type": "flat", "Price": 1400.0, "m2": 95.0, "Rooms": 3, "location": {"type": "Point", "coordinates": [-3.6866813, 40.4490213]}}, {"Street": "Piso en calle Carlos Arniches", "District": "centro", "Property_Type": "flat", "Price": 800.0, "m2": 47.0, "Rooms": 1, "location": {"type": "Point", "coordinates": [-3.7082207, 40.4071529]}}, {"Street": "Piso en calle Ronda de Atocha, n\u00ba 12", "District": "centro", "Property_Type": "flat", "Price": 1200.0, "m2": 81.0, "Rooms": 3, "location": {"type": "Point", "coordinates": [-3.696592299999999, 40.4069042]}}, {"Street": "Piso en calle calle de Santa Susana", "District": "hortaleza", "Property_Type": "flat", "Price": 780.0, "m2": 53.0, "Rooms": 1, "location": {"type": "Point", "coordinates": [-3.6461722, 40.4771993]}}, {"Street": "Piso en calle Cocheras, n\u00ba 4", "District": "retiro", "Property_Type": "flat", "Price": 1300.0, "m2": 80.0, "Rooms": 2, "location": {"type": "Point", "coordinates": [-3.6772108, 40.40065209999999]}}, {"Street": "Piso en calle Alcala, n\u00ba 211", "District": "salamanca", "Property_Type": "flat", "Price": 1490.0, "m2": 85.0, "Rooms": 2, "location": {"type": "Point", "coordinates": [-3.6663706, 40.4294923]}}, {"Street": "Piso en calle Andres Obispo", "District": "hortaleza", "Property_Type": "flat", "Price": 1100.0, "m2": 70.0, "Rooms": 2, "location": {"type": "Point", "coordinates": [-3.6481467, 40.4641933]}}, {"Street": "Piso en calle Profesor Waksman", "District": "chamartin", "Property_Type": "flat", "Price": 3500.0, "m2": 220.0, "Rooms": 4, "location": {"type": "Point", "coordinates": [-3.699714599999999, 40.4573172]}}, {"Street": "Apartamento en calle del Doctor Castelo", "District": "salamanca", "Property_Type": "flat", "Price": 1400.0, "m2": 63.0, "Rooms": 2, "location": {"type": "Point", "coordinates": [-3.6747819, 40.4201976]}}, {"Street": "Piso en calle Pilar de Zaragoza, n\u00ba 71", "District": "salamanca", "Property_Type": "flat", "Price": 1400.0, "m2": 104.0, "Rooms": 3, "location": {"type": "Point", "coordinates": [-3.6724621, 40.4365061]}}, {"Street": "Piso en Lista", "District": "salamanca", "Property_Type": "flat", "Price": 1100.0, "m2": 50.0, "Rooms": 1, "location": {"type": "Point", "coordinates": [-3.671107, 40.430508]}}, {"Street": "\u00c1tico en calle Buganvilla", "District": "chamartin", "Property_Type": "penthouse", "Price": 1500.0, "m2": 90.0, "Rooms": 2, "location": {"type": "Point", "coordinates": [-3.677828, 40.4723446]}}, {"Street": "Piso en calle del Mes\u00f3n de Paredes", "District": "centro", "Property_Type": "flat", "Price": 1000.0, "m2": 37.0, "Rooms": 2, "location": {"type": "Point", "coordinates": [-3.7010461, 40.4057018]}}, {"Street": "Piso en Canillas", "District": "hortaleza", "Property_Type": "flat", "Price": 1300.0, "m2": 120.0, "Rooms": 3, "location": {"type": "Point", "coordinates": [-3.6399759, 40.4662382]}}, {"Street": "Piso en calle calle de los Hermanos B\u00e9cquer", "District": "salamanca", "Property_Type": "flat", "Price": 9000.0, "m2": 321.0, "Rooms": 2, "location": {"type": "Point", "coordinates": [-3.6865147, 40.4375619]}}, {"Street": "Apartamento en La Florida-Valdemar\u00edn-Aravaca", "District": "moncloa", "Property_Type": "flat", "Price": 1899.0, "m2": 70.0, "Rooms": 2, "location": {"type": "Point", "coordinates": [-3.7839264, 40.4654314]}}, {"Street": "Chalet en calle calle de Peguerinos", "District": "moncloa", "Property_Type": "chalet", "Price": 10000.0, "m2": 730.0, "Rooms": 5, "location": {"type": "Point", "coordinates": [-3.7353762, 40.470201]}}, {"Street": "Piso en Casa de Campo", "District": "moncloa", "Property_Type": "flat", "Price": 1400.0, "m2": 83.0, "Rooms": 3, "location": {"type": "Point", "coordinates": [-3.7488366, 40.4197419]}}, {"Street": "Apartamento en calle calle de Santa Susana", "District": "hortaleza", "Property_Type": "flat", "Price": 775.0, "m2": 52.0, "Rooms": 1, "location": {"type": "Point", "coordinates": [-3.6529505, 40.4629713]}}, {"Street": "Piso en calle Doctor Esquerdo", "District": "retiro", "Property_Type": "flat", "Price": 1200.0, "m2": 63.0, "Rooms": 2, "location": {"type": "Point", "coordinates": [-3.672279199999999, 40.4044296]}}, {"Street": "Piso en calle calle de R\u00edos Rosas", "District": "chamberi", "Property_Type": "flat", "Price": 2650.0, "m2": 190.0, "Rooms": 3, "location": {"type": "Point", "coordinates": [-3.6973587, 40.4419465]}}, {"Street": "Apartamento en Salamanca", "District": "salamanca", "Property_Type": "flat", "Price": 2250.0, "m2": 90.0, "Rooms": 2, "location": {"type": "Point", "coordinates": [-5.663330999999999, 40.963884]}}, {"Street": "Piso en calle calle de Fuencarral", "District": "chamberi", "Property_Type": "flat", "Price": 1450.0, "m2": 41.0, "Rooms": 1, "location": {"type": "Point", "coordinates": [-3.7025439, 40.4299832]}}, {"Street": "Piso en calle calle del Pr\u00edncipe de Vergara", "District": "salamanca", "Property_Type": "flat", "Price": 2100.0, "m2": 123.0, "Rooms": 3, "location": {"type": "Point", "coordinates": [-3.679615, 40.434185]}}, {"Street": "Piso en calle Paseo de La Infanta Isabel, n\u00ba 21", "District": "retiro", "Property_Type": "flat", "Price": 1500.0, "m2": 75.0, "Rooms": 2, "location": {"type": "Point", "coordinates": [-3.6869899, 40.4067791]}}, {"Street": "Apartamento en Centro", "District": "centro", "Property_Type": "flat", "Price": 2100.0, "m2": 40.0, "Rooms": 1, "location": {"type": "Point", "coordinates": [-3.696856, 40.424815]}}, {"Street": "Piso en calle Nu\u00f1ez de Balboa", "District": "salamanca", "Property_Type": "flat", "Price": 4500.0, "m2": 156.0, "Rooms": 2, "location": {"type": "Point", "coordinates": [-3.6821721, 40.4281377]}}, {"Street": "Piso en Salamanca - Goya", "District": "salamanca", "Property_Type": "flat", "Price": 2300.0, "m2": 104.0, "Rooms": 3, "location": {"type": "Point", "coordinates": [-3.669762, 40.4278069]}}, {"Street": "Piso en calle calle de Guti\u00e9rrez Solana", "District": "chamartin", "Property_Type": "flat", "Price": 3000.0, "m2": 192.0, "Rooms": 4, "location": {"type": "Point", "coordinates": [-3.6884898, 40.450672]}}, {"Street": "Apartamento en Chamart\u00edn", "District": "chamartin", "Property_Type": "flat", "Price": 3500.0, "m2": 320.0, "Rooms": 4, "location": {"type": "Point", "coordinates": [-3.6724928, 40.4447389]}}, {"Street": "Apartamento en calle de Serrano", "District": "salamanca", "Property_Type": "flat", "Price": 6500.0, "m2": 400.0, "Rooms": 3, "location": {"type": "Point", "coordinates": [-3.6900327, 40.4227751]}}, {"Street": "Casa en calle Ronda de Sobradiel", "District": "hortaleza", "Property_Type": "flat", "Price": 4500.0, "m2": 474.0, "Rooms": 7, "location": {"type": "Point", "coordinates": [-3.6420906, 40.45214420000001]}}, {"Street": "Apartamento en Chamart\u00edn", "District": "chamartin", "Property_Type": "flat", "Price": 1990.0, "m2": 106.0, "Rooms": 2, "location": {"type": "Point", "coordinates": [-3.6724928, 40.4447389]}}, {"Street": "Piso en Chamart\u00edn - Prosperidad", "District": "chamartin", "Property_Type": "flat", "Price": 1700.0, "m2": 90.0, "Rooms": 1, "location": {"type": "Point", "coordinates": [-3.6777156, 40.4417123]}}, {"Street": "Piso en Salamanca - Goya", "District": "salamanca", "Property_Type": "flat", "Price": 2400.0, "m2": 136.0, "Rooms": 3, "location": {"type": "Point", "coordinates": [-3.669762, 40.4278069]}}, {"Street": "D\u00faplex en Justicia-Chueca", "District": "centro", "Property_Type": "duplex", "Price": 2500.0, "m2": 126.0, "Rooms": 2, "location": {"type": "Point", "coordinates": [-3.6982985, 40.4207503]}}, {"Street": "Apartamento en Centro", "District": "centro", "Property_Type": "flat", "Price": 2100.0, "m2": 45.0, "Rooms": 1, "location": {"type": "Point", "coordinates": [-3.696856, 40.424815]}}, {"Street": "\u00c1tico en Centro - Palacio", "District": "centro", "Property_Type": "penthouse", "Price": 2100.0, "m2": 170.0, "Rooms": 3, "location": {"type": "Point", "coordinates": [-3.7108122, 40.4086856]}}, {"Street": "Piso en Centro - Justicia - Chueca", "District": "centro", "Property_Type": "flat", "Price": 3000.0, "m2": 220.0, "Rooms": 4, "location": {"type": "Point", "coordinates": [-3.6969823, 40.4225798]}}, {"Street": "Apartamento en Centro", "District": "centro", "Property_Type": "flat", "Price": 1800.0, "m2": 100.0, "Rooms": 2, "location": {"type": "Point", "coordinates": [-3.696856, 40.424815]}}, {"Street": "Piso en Salamanca - Recoletos", "District": "salamanca", "Property_Type": "flat", "Price": 8700.0, "m2": 226.0, "Rooms": 4, "location": {"type": "Point", "coordinates": [-3.6733793, 40.4296398]}}, {"Street": "Piso en Salamanca - Goya", "District": "salamanca", "Property_Type": "flat", "Price": 2000.0, "m2": 150.0, "Rooms": 3, "location": {"type": "Point", "coordinates": [-3.669762, 40.4278069]}}, {"Street": "Apartamento en Chamber\u00ed", "District": "chamberi", "Property_Type": "flat", "Price": 1400.0, "m2": 55.0, "Rooms": 1, "location": {"type": "Point", "coordinates": [-3.7091414, 40.4303238]}}, {"Street": "Piso en calle de La Madera", "District": "centro", "Property_Type": "flat", "Price": 850.0, "m2": 45.0, "Rooms": 1, "location": {"type": "Point", "coordinates": [-3.7045119, 40.4287993]}}, {"Street": "Apartamento en Salamanca", "District": "salamanca", "Property_Type": "flat", "Price": 1850.0, "m2": 105.0, "Rooms": 1, "location": {"type": "Point", "coordinates": [-5.663330999999999, 40.963884]}}, {"Street": "Piso en Centro", "District": "centro", "Property_Type": "flat", "Price": 1300.0, "m2": 115.0, "Rooms": 2, "location": {"type": "Point", "coordinates": [-3.6964077, 40.403833]}}, {"Street": "Apartamento en Chamber\u00ed", "District": "chamberi", "Property_Type": "flat", "Price": 1890.0, "m2": 120.0, "Rooms": 2, "location": {"type": "Point", "coordinates": [-3.7091414, 40.4303238]}}, {"Street": "Apartamento en Salamanca", "District": "salamanca", "Property_Type": "flat", "Price": 1450.0, "m2": 120.0, "Rooms": 2, "location": {"type": "Point", "coordinates": [-5.663330999999999, 40.963884]}}, {"Street": "Piso en Centro - Palacio", "District": "centro", "Property_Type": "flat", "Price": 3600.0, "m2": 222.0, "Rooms": 4, "location": {"type": "Point", "coordinates": [-3.712553, 40.4076398]}}, {"Street": "Piso en Tetu\u00e1n - Cuatro Caminos - Azca", "District": "tetuan", "Property_Type": "flat", "Price": 2300.0, "m2": 155.0, "Rooms": 3, "location": {"type": "Point", "coordinates": [-3.7013532, 40.4469349]}}, {"Street": "Piso en calle de Isabel La Cat\u00f3lica", "District": "centro", "Property_Type": "flat", "Price": 1230.0, "m2": 81.0, "Rooms": 2, "location": {"type": "Point", "coordinates": [-3.70962, 40.42132]}}, {"Street": "Apartamento en Centro", "District": "centro", "Property_Type": "flat", "Price": 1495.0, "m2": 70.0, "Rooms": 1, "location": {"type": "Point", "coordinates": [-3.696856, 40.424815]}}, {"Street": "Piso en Salamanca - Lista", "District": "salamanca", "Property_Type": "flat", "Price": 4500.0, "m2": 230.0, "Rooms": 5, "location": {"type": "Point", "coordinates": [-3.6733793, 40.4296398]}}, {"Street": "Apartamento en calle de Hermosilla", "District": "salamanca", "Property_Type": "flat", "Price": 1750.0, "m2": 120.0, "Rooms": 3, "location": {"type": "Point", "coordinates": [-3.6738469, 40.4248681]}}, {"Street": "Piso en calle Maria de Molina", "District": "salamanca", "Property_Type": "flat", "Price": 2500.0, "m2": 90.0, "Rooms": 2, "location": {"type": "Point", "coordinates": [-3.678289, 40.437085]}}, {"Street": "Piso en Aravaca", "District": "moncloa", "Property_Type": "flat", "Price": 1800.0, "m2": 155.0, "Rooms": 3, "location": {"type": "Point", "coordinates": [-3.7843488, 40.4473406]}}, {"Street": "Piso en Almagro", "District": "chamberi", "Property_Type": "flat", "Price": 3900.0, "m2": 137.0, "Rooms": 3, "location": {"type": "Point", "coordinates": [-3.6923777, 40.4306895]}}, {"Street": "Piso en Justicia-Chueca", "District": "centro", "Property_Type": "flat", "Price": 1500.0, "m2": 67.0, "Rooms": 1, "location": {"type": "Point", "coordinates": [-3.6989207, 40.4234293]}}, {"Street": "D\u00faplex en Recoletos", "District": "salamanca", "Property_Type": "duplex", "Price": 3500.0, "m2": 144.0, "Rooms": 2, "location": {"type": "Point", "coordinates": [-3.6881356, 40.42140330000001]}}, {"Street": "Piso en calle Lagasca", "District": "salamanca", "Property_Type": "flat", "Price": 900.0, "m2": 30.0, "Rooms": 1, "location": {"type": "Point", "coordinates": [-3.684739899999999, 40.4333633]}}, {"Street": "Apartamento en Justicia-Chueca", "District": "centro", "Property_Type": "flat", "Price": 675.0, "m2": 40.0, "Rooms": 1, "location": {"type": "Point", "coordinates": [-3.6994466, 40.4228457]}}, {"Street": "Piso en Plaza de Almu\u00f1ecar, n\u00ba 1", "District": "moncloa", "Property_Type": "flat", "Price": 995.0, "m2": 63.0, "Rooms": 2, "location": {"type": "Point", "coordinates": [-3.7293114, 40.42801]}}, {"Street": "Piso en Tetuan", "District": "tetuan", "Property_Type": "flat", "Price": 1150.0, "m2": 80.0, "Rooms": 3, "location": {"type": "Point", "coordinates": [-3.6978264, 40.45883510000001]}}, {"Street": "Apartamento en calle Mar\u00eda Pedraza", "District": "tetuan", "Property_Type": "flat", "Price": 900.0, "m2": 65.0, "Rooms": 2, "location": {"type": "Point", "coordinates": [-3.7100883, 40.4531535]}}, {"Street": "Piso en calle calle de Calatrava", "District": "centro", "Property_Type": "flat", "Price": 1200.0, "m2": 100.0, "Rooms": 3, "location": {"type": "Point", "coordinates": [-3.7118444, 40.4093375]}}, {"Street": "Apartamento en calle Espa\u00f1oleto", "District": "chamberi", "Property_Type": "flat", "Price": 700.0, "m2": 35.0, "Rooms": 1, "location": {"type": "Point", "coordinates": [-3.6965778, 40.4293686]}}, {"Street": "Loft en calle Manuel Fern\u00e1ndez y Gonz\u00e1lez", "District": "centro", "Property_Type": "studio", "Price": 750.0, "m2": 35.0, "Rooms": 1, "location": {"type": "Point", "coordinates": [-3.6995694, 40.4151568]}}, {"Street": "Piso en calle Rafael Herrera", "District": "chamartin", "Property_Type": "flat", "Price": 1050.0, "m2": 57.0, "Rooms": 2, "location": {"type": "Point", "coordinates": [-3.684839, 40.467824]}}, {"Street": "Piso en calle Alfonso XII", "District": "retiro", "Property_Type": "flat", "Price": 2400.0, "m2": 162.0, "Rooms": 3, "location": {"type": "Point", "coordinates": [-3.6888726, 40.4082002]}}, {"Street": "Apartamento en calle Gran V\u00eda, n\u00ba 68", "District": "centro", "Property_Type": "flat", "Price": 2000.0, "m2": 82.0, "Rooms": 1, "location": {"type": "Point", "coordinates": [-3.709053299999999, 40.422017]}}, {"Street": "Piso en calle General Yag\u00fce", "District": "tetuan", "Property_Type": "flat", "Price": 2300.0, "m2": 125.0, "Rooms": 2, "location": {"type": "Point", "coordinates": [-3.6990358, 40.4568375]}}, {"Street": "Apartamento en calle San Vicente Ferrer", "District": "centro", "Property_Type": "flat", "Price": 840.0, "m2": 34.0, "Rooms": 1, "location": {"type": "Point", "coordinates": [-3.701216999999999, 40.4254533]}}, {"Street": "Piso en calle Infanta Maria Teresa, n\u00ba 6", "District": "chamartin", "Property_Type": "flat", "Price": 2600.0, "m2": 120.0, "Rooms": 3, "location": {"type": "Point", "coordinates": [-3.682097499999999, 40.4540278]}}, {"Street": "Piso en calle Valdemarin", "District": "moncloa", "Property_Type": "flat", "Price": 2250.0, "m2": 155.0, "Rooms": 4, "location": {"type": "Point", "coordinates": [-3.7831149, 40.47198700000001]}}, {"Street": "\u00c1tico en calle de Don Ram\u00f3n de La Cruz", "District": "salamanca", "Property_Type": "penthouse", "Price": 2100.0, "m2": 143.0, "Rooms": 2, "location": {"type": "Point", "coordinates": [-3.6804439, 40.4290432]}}, {"Street": "Piso en Almagro", "District": "chamberi", "Property_Type": "flat", "Price": 3300.0, "m2": 140.0, "Rooms": 2, "location": {"type": "Point", "coordinates": [-3.6923777, 40.4306895]}}, {"Street": "Piso en calle Alfonso XII", "District": "retiro", "Property_Type": "flat", "Price": 4400.0, "m2": 240.0, "Rooms": 5, "location": {"type": "Point", "coordinates": [-3.6888726, 40.4082002]}}, {"Street": "Piso en calle Monte Esquinza, n\u00ba 34", "District": "chamberi", "Property_Type": "flat", "Price": 4200.0, "m2": 220.0, "Rooms": 4, "location": {"type": "Point", "coordinates": [-3.6917842, 40.42999349999999]}}, {"Street": "Piso en calle Palmera, n\u00ba 12", "District": "tetuan", "Property_Type": "flat", "Price": 975.0, "m2": 68.0, "Rooms": 2, "location": {"type": "Point", "coordinates": [-3.6920991, 40.4720673]}}, {"Street": "Piso en calle Rodr\u00edguez San Pedro", "District": "chamberi", "Property_Type": "flat", "Price": 1250.0, "m2": 60.0, "Rooms": 1, "location": {"type": "Point", "coordinates": [-3.7108328, 40.431774]}}, {"Street": "Apartamento en calle Orense", "District": "tetuan", "Property_Type": "flat", "Price": 1650.0, "m2": 70.0, "Rooms": 1, "location": {"type": "Point", "coordinates": [-3.6947215, 40.4587822]}}, {"Street": "Piso en calle calle Alcalde Sainz de Baranda", "District": "retiro", "Property_Type": "flat", "Price": 1400.0, "m2": 72.0, "Rooms": 2, "location": {"type": "Point", "coordinates": [-3.669415, 40.41614]}}, {"Street": "Apartamento en Avenida del Mediterr\u00e1neo", "District": "retiro", "Property_Type": "flat", "Price": 1050.0, "m2": 68.0, "Rooms": 2, "location": {"type": "Point", "coordinates": [-3.6690037, 40.40179759999999]}}, {"Street": "Piso en calle Aguirre, n\u00ba 3", "District": "salamanca", "Property_Type": "flat", "Price": 1750.0, "m2": 75.0, "Rooms": 2, "location": {"type": "Point", "coordinates": [-3.6812409, 40.4218268]}}, {"Street": "Apartamento en Avenida del Talgo, n\u00ba 81", "District": "moncloa", "Property_Type": "flat", "Price": 1300.0, "m2": 95.0, "Rooms": 2, "location": {"type": "Point", "coordinates": [-3.7853902, 40.4470812]}}, {"Street": "Piso en Avenida Juan de Andres, n\u00ba 15", "District": "moncloa", "Property_Type": "flat", "Price": 710.0, "m2": 40.0, "Rooms": 1, "location": {"type": "Point", "coordinates": [-3.723160899999999, 40.4678362]}}, {"Street": "Piso en Salamanca - Recoletos", "District": "salamanca", "Property_Type": "flat", "Price": 2800.0, "m2": 147.0, "Rooms": 3, "location": {"type": "Point", "coordinates": [-3.6733793, 40.4296398]}}, {"Street": "Apartamento en calle de La Aduana", "District": "centro", "Property_Type": "flat", "Price": 850.0, "m2": 40.0, "Rooms": 1, "location": {"type": "Point", "coordinates": [-3.701460599999999, 40.4183278]}}, {"Street": "Apartamento en calle Alfonso XII", "District": "retiro", "Property_Type": "flat", "Price": 1100.0, "m2": 59.0, "Rooms": 1, "location": {"type": "Point", "coordinates": [-3.6891862, 40.4163427]}}, {"Street": "Apartamento en calle Juan \u00c1lvarez Mendizabal, n\u00ba 51", "District": "moncloa", "Property_Type": "flat", "Price": 1150.0, "m2": 52.0, "Rooms": 1, "location": {"type": "Point", "coordinates": [-3.7163996, 40.426581]}}, {"Street": "\u00c1tico en calle Buganvilla", "District": "chamartin", "Property_Type": "penthouse", "Price": 1500.0, "m2": 90.0, "Rooms": 2, "location": {"type": "Point", "coordinates": [-3.677828, 40.4723446]}}, {"Street": "Apartamento en calle de R\u00edos Rosas", "District": "chamberi", "Property_Type": "flat", "Price": 2650.0, "m2": 190.0, "Rooms": 3, "location": {"type": "Point", "coordinates": [-3.7014559, 40.441724]}}, {"Street": "Piso en calle Platerias, n\u00ba 4", "District": "chamartin", "Property_Type": "flat", "Price": 3500.0, "m2": 389.0, "Rooms": 6, "location": {"type": "Point", "coordinates": [-3.6777343, 40.4674595]}}, {"Street": "Apartamento en calle de Las Infantas", "District": "centro", "Property_Type": "flat", "Price": 2500.0, "m2": 200.0, "Rooms": 4, "location": {"type": "Point", "coordinates": [-3.7006038, 40.4207985]}}, {"Street": "Estudio en Avenida Filipinas, n\u00ba 1 Bis", "District": "chamberi", "Property_Type": "studio", "Price": 800.0, "m2": 38.0, "Rooms": 1, "location": {"type": "Point", "coordinates": [-3.7125385, 40.4394342]}}, {"Street": "Piso en calle de Ferraz", "District": "moncloa", "Property_Type": "flat", "Price": 2350.0, "m2": 140.0, "Rooms": 3, "location": {"type": "Point", "coordinates": [-3.7198331, 40.42857540000001]}}, {"Street": "Piso en Arapiles", "District": "chamberi", "Property_Type": "flat", "Price": 1000.0, "m2": 60.0, "Rooms": 2, "location": {"type": "Point", "coordinates": [-3.7086506, 40.43512459999999]}}, {"Street": "Piso en calle Raimundo Fen\u00e1ndez Villaverde", "District": "tetuan", "Property_Type": "flat", "Price": 2500.0, "m2": 125.0, "Rooms": 2, "location": {"type": "Point", "coordinates": [-3.7013532, 40.4469349]}}, {"Street": "Piso en Paseo Paseo de La Habana 26", "District": "chamartin", "Property_Type": "flat", "Price": 1500.0, "m2": 60.0, "Rooms": 2, "location": {"type": "Point", "coordinates": [-3.6888456, 40.4488613]}}, {"Street": "Piso en calle Alcala", "District": "salamanca", "Property_Type": "flat", "Price": 1200.0, "m2": 64.0, "Rooms": 2, "location": {"type": "Point", "coordinates": [-3.646351, 40.43412060000001]}}, {"Street": "Apartamento en calle de Pizarro, n\u00ba 5", "District": "centro", "Property_Type": "flat", "Price": 1200.0, "m2": 50.0, "Rooms": 2, "location": {"type": "Point", "coordinates": [-3.70578, 40.423344]}}, {"Street": "Piso en Paseo de La Castellana, n\u00ba 100", "District": "chamartin", "Property_Type": "flat", "Price": 2800.0, "m2": 212.0, "Rooms": 3, "location": {"type": "Point", "coordinates": [-3.690781399999999, 40.4443748]}}, {"Street": "Apartamento en Almagro", "District": "chamberi", "Property_Type": "flat", "Price": 3500.0, "m2": 166.0, "Rooms": 3, "location": {"type": "Point", "coordinates": [-3.7135661, 38.8876251]}}, {"Street": "Apartamento en calle San Lorenzo", "District": "centro", "Property_Type": "flat", "Price": 1800.0, "m2": 103.0, "Rooms": 4, "location": {"type": "Point", "coordinates": [-3.698336, 40.4248143]}}, {"Street": "Piso en calle Jer\u00f3nimo de La Quintana, n\u00ba 11", "District": "chamberi", "Property_Type": "flat", "Price": 1850.0, "m2": 100.0, "Rooms": 3, "location": {"type": "Point", "coordinates": [-3.7046841, 40.4313158]}}, {"Street": "Piso en Hispanoam\u00e9rica", "District": "chamartin", "Property_Type": "flat", "Price": 2990.0, "m2": 220.0, "Rooms": 4, "location": {"type": "Point", "coordinates": [-3.6742557, 40.4521575]}}, {"Street": "Apartamento en calle de N\u00fa\u00f1ez de Balboa", "District": "retiro", "Property_Type": "flat", "Price": 3200.0, "m2": 125.0, "Rooms": 2, "location": {"type": "Point", "coordinates": [-3.683122, 40.422782]}}, {"Street": "Piso en calle de Ferraz, n\u00ba 43", "District": "moncloa", "Property_Type": "flat", "Price": 1375.0, "m2": 80.0, "Rooms": 2, "location": {"type": "Point", "coordinates": [-3.720354, 40.4288895]}}, {"Street": "Piso en calle Medellin", "District": "chamberi", "Property_Type": "flat", "Price": 1150.0, "m2": 66.0, "Rooms": 1, "location": {"type": "Point", "coordinates": [-3.6995308, 40.4390319]}}, {"Street": "Piso en calle San Benito, n\u00ba 49", "District": "tetuan", "Property_Type": "flat", "Price": 1150.0, "m2": 80.0, "Rooms": 2, "location": {"type": "Point", "coordinates": [-3.6955667, 40.4707472]}}, {"Street": "Piso en Sanchinarro", "District": "hortaleza", "Property_Type": "flat", "Price": 1400.0, "m2": 115.0, "Rooms": 3, "location": {"type": "Point", "coordinates": [-3.6508781, 40.4898353]}}, {"Street": "Piso en Avenida Francisco Javier S\u00e1enz de Oiza, n\u00ba 50", "District": "hortaleza", "Property_Type": "flat", "Price": 1800.0, "m2": 130.0, "Rooms": 3, "location": {"type": "Point", "coordinates": [-3.6178552, 40.4980473]}}, {"Street": "1500 \u20ac/semPiso en calle Siete de Julio", "District": "centro", "Property_Type": "flat", "Price": 1500.0, "m2": 80.0, "Rooms": 2, "location": {"type": "Point", "coordinates": [-3.7079546, 40.41583749999999]}}, {"Street": "Apartamento en calle Cardenal Cisneros, n\u00ba 75", "District": "chamberi", "Property_Type": "flat", "Price": 850.0, "m2": 42.0, "Rooms": 1, "location": {"type": "Point", "coordinates": [-3.6986848, 40.4328946]}}, {"Street": "\u00c1tico en calle Sagasta", "District": "centro", "Property_Type": "penthouse", "Price": 8500.0, "m2": 350.0, "Rooms": 4, "location": {"type": "Point", "coordinates": [-3.6994911, 40.4194369]}}, {"Street": "Apartamento en calle Francos Rodr\u00edguez, n\u00ba 88", "District": "tetuan", "Property_Type": "flat", "Price": 850.0, "m2": 50.0, "Rooms": 1, "location": {"type": "Point", "coordinates": [-3.6993042, 40.4587417]}}, {"Street": "Piso en calle de Sta Hortensia", "District": "chamartin", "Property_Type": "flat", "Price": 1800.0, "m2": 100.0, "Rooms": 4, "location": {"type": "Point", "coordinates": [-3.6628142, 40.4456943]}}, {"Street": "Piso en calle Raimundo Fernandez Villaverde", "District": "chamberi", "Property_Type": "flat", "Price": 2500.0, "m2": 165.0, "Rooms": 4, "location": {"type": "Point", "coordinates": [-3.7013532, 40.4469349]}}, {"Street": "Chalet en calle de Laur\u00edn", "District": "hortaleza", "Property_Type": "chalet", "Price": 3200.0, "m2": 295.0, "Rooms": 6, "location": {"type": "Point", "coordinates": [-3.6488145, 40.4576331]}}, {"Street": "Apartamento en calle Orense, n\u00ba 10", "District": "tetuan", "Property_Type": "flat", "Price": 2800.0, "m2": 180.0, "Rooms": 3, "location": {"type": "Point", "coordinates": [-3.6947215, 40.4587822]}}, {"Street": "\u00c1tico en Universidad-Malasa\u00f1a", "District": "centro", "Property_Type": "penthouse", "Price": 670.0, "m2": 30.0, "Rooms": 1, "location": {"type": "Point", "coordinates": [-3.695596, 40.415903]}}, {"Street": "Apartamento en Salamanca", "District": "salamanca", "Property_Type": "flat", "Price": 2100.0, "m2": 123.0, "Rooms": 3, "location": {"type": "Point", "coordinates": [-5.663330999999999, 40.963884]}}, {"Street": "Piso en calle del Coraz\u00f3n de Mar\u00eda", "District": "chamartin", "Property_Type": "flat", "Price": 1150.0, "m2": 64.0, "Rooms": 2, "location": {"type": "Point", "coordinates": [-3.678289, 40.437085]}}, {"Street": "Piso en calle  O\u00b4Donnell 46", "District": "salamanca", "Property_Type": "flat", "Price": 2140.0, "m2": 150.0, "Rooms": 4, "location": {"type": "Point", "coordinates": [-3.6732492, 40.4211941]}}, {"Street": "Piso en calle Orfila", "District": "chamberi", "Property_Type": "flat", "Price": 1200.0, "m2": 49.0, "Rooms": 1, "location": {"type": "Point", "coordinates": [-3.7045119, 40.4287993]}}, {"Street": "Piso en calle calle de Mauricio Legendre, n\u00ba 29", "District": "chamartin", "Property_Type": "flat", "Price": 1250.0, "m2": 66.0, "Rooms": 2, "location": {"type": "Point", "coordinates": [-3.6861571, 40.4722645]}}, {"Street": "Apartamento en Chamart\u00edn", "District": "chamartin", "Property_Type": "flat", "Price": 1100.0, "m2": 49.0, "Rooms": 1, "location": {"type": "Point", "coordinates": [-3.6724928, 40.4447389]}}, {"Street": "Piso en calle Ambrosio Vallejo, n\u00ba 22", "District": "tetuan", "Property_Type": "flat", "Price": 750.0, "m2": 35.0, "Rooms": 1, "location": {"type": "Point", "coordinates": [-3.7081133, 40.4573344]}}, {"Street": "Piso en calle Maestro Alonso, n\u00ba 17", "District": "salamanca", "Property_Type": "flat", "Price": 1650.0, "m2": 79.0, "Rooms": 3, "location": {"type": "Point", "coordinates": [-3.6639479, 40.4286357]}}, {"Street": "Apartamento en calle de Andres Mellado, n\u00ba 82", "District": "chamberi", "Property_Type": "flat", "Price": 1400.0, "m2": 80.0, "Rooms": 2, "location": {"type": "Point", "coordinates": [-3.7140765, 40.4378825]}}, {"Street": "Piso en calle Madera, n\u00ba 30", "District": "centro", "Property_Type": "flat", "Price": 795.0, "m2": 35.0, "Rooms": 1, "location": {"type": "Point", "coordinates": [-3.7038192, 40.4240054]}}, {"Street": "D\u00faplex en calle Segre", "District": "chamartin", "Property_Type": "duplex", "Price": 4300.0, "m2": 248.0, "Rooms": 3, "location": {"type": "Point", "coordinates": [-3.6838742, 40.45088680000001]}}, {"Street": "Apartamento en calle Ballesta", "District": "centro", "Property_Type": "flat", "Price": 1100.0, "m2": 40.0, "Rooms": 2, "location": {"type": "Point", "coordinates": [-3.7035898, 40.42274870000001]}}, {"Street": "Piso en Universidad", "District": "centro", "Property_Type": "flat", "Price": 1200.0, "m2": 63.0, "Rooms": 3, "location": {"type": "Point", "coordinates": [-3.706918, 40.424238]}}, {"Street": "Piso en calle Serrano", "District": "salamanca", "Property_Type": "flat", "Price": 3600.0, "m2": 136.0, "Rooms": 3, "location": {"type": "Point", "coordinates": [-3.6865147, 40.4375619]}}, {"Street": "D\u00faplex en calle Corredera Baja de San Pablo", "District": "centro", "Property_Type": "duplex", "Price": 3000.0, "m2": 202.0, "Rooms": 2, "location": {"type": "Point", "coordinates": [-3.7037051, 40.4225791]}}, {"Street": "Piso en calle Don Quijote, n\u00ba 40", "District": "tetuan", "Property_Type": "flat", "Price": 1150.0, "m2": 80.0, "Rooms": 2, "location": {"type": "Point", "coordinates": [-3.6989659, 40.4493325]}}, {"Street": "Piso en calle Orense, n\u00ba 6", "District": "tetuan", "Property_Type": "flat", "Price": 1950.0, "m2": 98.0, "Rooms": 2, "location": {"type": "Point", "coordinates": [-3.6952201, 40.4479462]}}, {"Street": "Piso en calle Talavera", "District": "chamartin", "Property_Type": "flat", "Price": 1150.0, "m2": 58.0, "Rooms": 1, "location": {"type": "Point", "coordinates": [-3.6862323, 40.4380946]}}, {"Street": "Piso en Goya", "District": "salamanca", "Property_Type": "flat", "Price": 2050.0, "m2": 134.0, "Rooms": 3, "location": {"type": "Point", "coordinates": [-3.6807456, 40.4248439]}}, {"Street": "Apartamento en calle Ramos Carrion", "District": "chamartin", "Property_Type": "flat", "Price": 1480.0, "m2": 117.0, "Rooms": 4, "location": {"type": "Point", "coordinates": [-3.6693286, 40.44674990000001]}}, {"Street": "Piso en calle Trevi\u00f1o", "District": "chamberi", "Property_Type": "flat", "Price": 1250.0, "m2": 64.0, "Rooms": 2, "location": {"type": "Point", "coordinates": [-3.7038309, 40.44402729999999]}}, {"Street": "\u00c1tico en Chamart\u00edn", "District": "chamartin", "Property_Type": "penthouse", "Price": 1300.0, "m2": 72.0, "Rooms": 3, "location": {"type": "Point", "coordinates": [-3.6855729, 40.4697982]}}, {"Street": "Casa en calle Abedul", "District": "chamartin", "Property_Type": "flat", "Price": 5600.0, "m2": 403.0, "Rooms": 4, "location": {"type": "Point", "coordinates": [-3.622843, 40.381305]}}, {"Street": "Piso en calle O\u00f1a", "District": "hortaleza", "Property_Type": "flat", "Price": 1200.0, "m2": 130.0, "Rooms": 3, "location": {"type": "Point", "coordinates": [-3.6684145, 40.48883989999999]}}, {"Street": "Apartamento en calle Jardines", "District": "centro", "Property_Type": "flat", "Price": 800.0, "m2": 51.0, "Rooms": 1, "location": {"type": "Point", "coordinates": [-3.7009215, 40.4188519]}}, {"Street": "Piso en calle de Hortaleza", "District": "centro", "Property_Type": "flat", "Price": 1300.0, "m2": 80.0, "Rooms": 2, "location": {"type": "Point", "coordinates": [-3.6989207, 40.4234293]}}, {"Street": "Piso en Sanchinarro", "District": "hortaleza", "Property_Type": "flat", "Price": 1200.0, "m2": 85.0, "Rooms": 2, "location": {"type": "Point", "coordinates": [-3.6508781, 40.4898353]}}, {"Street": "Piso en calle Navas", "District": "tetuan", "Property_Type": "flat", "Price": 750.0, "m2": 34.0, "Rooms": 1, "location": {"type": "Point", "coordinates": [-3.6975, 40.4597511]}}, {"Street": "Apartamento en calle del Barquillo", "District": "centro", "Property_Type": "flat", "Price": 2880.0, "m2": 133.0, "Rooms": 2, "location": {"type": "Point", "coordinates": [-3.6957851, 40.4228348]}}, {"Street": "Apartamento en calle Ana Mar\u00eda", "District": "tetuan", "Property_Type": "flat", "Price": 870.0, "m2": 49.0, "Rooms": 1, "location": {"type": "Point", "coordinates": [-3.6941619, 40.4646313]}}, {"Street": "Piso en Arturo  Soria", "District": "hortaleza", "Property_Type": "flat", "Price": 3900.0, "m2": 300.0, "Rooms": 5, "location": {"type": "Point", "coordinates": [-3.6428201, 40.4431532]}}, {"Street": "Piso en calle Le\u00f1eros", "District": "tetuan", "Property_Type": "flat", "Price": 850.0, "m2": 51.0, "Rooms": 1, "location": {"type": "Point", "coordinates": [-3.7089197, 40.4526738]}}, {"Street": "Piso en Universidad-Malasa\u00f1a", "District": "centro", "Property_Type": "flat", "Price": 750.0, "m2": 30.0, "Rooms": 1, "location": {"type": "Point", "coordinates": [-3.706918, 40.424238]}}, {"Street": "Piso en calle Fuente del Berro", "District": "salamanca", "Property_Type": "flat", "Price": 1950.0, "m2": 142.0, "Rooms": 3, "location": {"type": "Point", "coordinates": [-3.6681159, 40.4267599]}}, {"Street": "\u00c1tico en calle Luisa Fernanda, n\u00ba 20", "District": "moncloa", "Property_Type": "penthouse", "Price": 1800.0, "m2": 110.0, "Rooms": 2, "location": {"type": "Point", "coordinates": [-3.7157357, 40.4250627]}}, {"Street": "Estudio en R\u00edos Rosas", "District": "chamberi", "Property_Type": "studio", "Price": 750.0, "m2": 28.0, "Rooms": 1, "location": {"type": "Point", "coordinates": [-3.6994617, 40.4420305]}}, {"Street": "Piso en Cuatro Caminos", "District": "tetuan", "Property_Type": "flat", "Price": 1500.0, "m2": 78.0, "Rooms": 2, "location": {"type": "Point", "coordinates": [-3.7013532, 40.4469349]}}, {"Street": "Apartamento en calle Jorge Juan", "District": "salamanca", "Property_Type": "flat", "Price": 2200.0, "m2": 123.0, "Rooms": 3, "location": {"type": "Point", "coordinates": [-3.6796572, 40.4232011]}}, {"Street": "Piso en calle Lope de Vega", "District": "centro", "Property_Type": "flat", "Price": 1400.0, "m2": 110.0, "Rooms": 2, "location": {"type": "Point", "coordinates": [-3.6983821, 40.4138922]}}, {"Street": "Piso en calle Francisco Navacerrada", "District": "salamanca", "Property_Type": "flat", "Price": 1100.0, "m2": 73.0, "Rooms": 1, "location": {"type": "Point", "coordinates": [-3.671107, 40.430508]}}, {"Street": "Piso en calle La Palma", "District": "centro", "Property_Type": "flat", "Price": 850.0, "m2": 50.0, "Rooms": 1, "location": {"type": "Point", "coordinates": [-3.7049167, 40.42642]}}, {"Street": "Apartamento en calle de Claudio Coello", "District": "salamanca", "Property_Type": "flat", "Price": 3500.0, "m2": 287.0, "Rooms": 4, "location": {"type": "Point", "coordinates": [-3.6863961, 40.4279491]}}, {"Street": "Piso en Trafalgar", "District": "chamberi", "Property_Type": "flat", "Price": 950.0, "m2": 53.0, "Rooms": 2, "location": {"type": "Point", "coordinates": [-3.7025439, 40.4299832]}}, {"Street": "Piso en calle de Azcona", "District": "salamanca", "Property_Type": "flat", "Price": 1500.0, "m2": 72.0, "Rooms": 3, "location": {"type": "Point", "coordinates": [-3.671107, 40.430508]}}, {"Street": "Piso en calle calle de Vallehermoso", "District": "chamberi", "Property_Type": "flat", "Price": 1900.0, "m2": 180.0, "Rooms": 2, "location": {"type": "Point", "coordinates": [-3.7084783, 40.4379486]}}, {"Street": "Piso en calle Rodas", "District": "centro", "Property_Type": "flat", "Price": 850.0, "m2": 38.0, "Rooms": 2, "location": {"type": "Point", "coordinates": [-3.7057636, 40.408348]}}, {"Street": "Piso en calle Fernandez de La Hoz", "District": "chamberi", "Property_Type": "flat", "Price": 1800.0, "m2": 70.0, "Rooms": 1, "location": {"type": "Point", "coordinates": [-3.6948452, 40.43596429999999]}}, {"Street": "Piso en Paseo Imperial", "District": "centro", "Property_Type": "flat", "Price": 1300.0, "m2": 50.0, "Rooms": 2, "location": {"type": "Point", "coordinates": [-3.7166143, 40.4066537]}}, {"Street": "Apartamento en calle de Sta Engracia", "District": "chamberi", "Property_Type": "flat", "Price": 950.0, "m2": 61.0, "Rooms": 1, "location": {"type": "Point", "coordinates": [-3.7014559, 40.441724]}}, {"Street": "Piso en calle \u00c1ngel Mu\u00f1oz", "District": "chamartin", "Property_Type": "flat", "Price": 4000.0, "m2": 404.0, "Rooms": 5, "location": {"type": "Point", "coordinates": [-3.6573617, 40.4540649]}}, {"Street": "Piso en calle Lucio del Valle", "District": "chamberi", "Property_Type": "flat", "Price": 800.0, "m2": 35.0, "Rooms": 1, "location": {"type": "Point", "coordinates": [-3.7084783, 40.4379486]}}, {"Street": "Piso en calle Fernando VI", "District": "centro", "Property_Type": "flat", "Price": 2300.0, "m2": 0.0, "Rooms": 0, "location": {"type": "Point", "coordinates": [-3.6958081, 40.4247753]}}, {"Street": "Apartamento en calle Bejar", "District": "salamanca", "Property_Type": "flat", "Price": 800.0, "m2": 40.0, "Rooms": 1, "location": {"type": "Point", "coordinates": [-3.6720764, 40.4370843]}}, {"Street": "Piso en Chamberi", "District": "chamberi", "Property_Type": "flat", "Price": 950.0, "m2": 36.0, "Rooms": 1, "location": {"type": "Point", "coordinates": [-3.704105, 40.43527]}}, {"Street": "Piso en calle calle de Serrano", "District": "salamanca", "Property_Type": "flat", "Price": 2800.0, "m2": 93.0, "Rooms": 2, "location": {"type": "Point", "coordinates": [-3.6865147, 40.4375619]}}, {"Street": "Piso en calle Zaragoza", "District": "centro", "Property_Type": "flat", "Price": 1200.0, "m2": 122.0, "Rooms": 2, "location": {"type": "Point", "coordinates": [-0.8763836, 41.65282089999999]}}, {"Street": "Piso en Hispanoam\u00e9rica", "District": "chamartin", "Property_Type": "flat", "Price": 1500.0, "m2": 88.0, "Rooms": 2, "location": {"type": "Point", "coordinates": [-3.6742557, 40.4521575]}}, {"Street": "Piso en calle Princesa", "District": "centro", "Property_Type": "flat", "Price": 2500.0, "m2": 150.0, "Rooms": 3, "location": {"type": "Point", "coordinates": [-3.7112146, 40.4229423]}}, {"Street": "Apartamento en Avenida de Bruselas, n\u00ba 74", "District": "salamanca", "Property_Type": "flat", "Price": 1200.0, "m2": 74.0, "Rooms": 2, "location": {"type": "Point", "coordinates": [-3.6725187, 40.4447271]}}, {"Street": "Casa pareada en Camino de La Huerta", "District": "hortaleza", "Property_Type": "flat", "Price": 4200.0, "m2": 300.0, "Rooms": 5, "location": {"type": "Point", "coordinates": [-3.38282, 40.30253]}}, {"Street": "Piso en calle calle de Valderribas", "District": "retiro", "Property_Type": "flat", "Price": 1800.0, "m2": 113.0, "Rooms": 3, "location": {"type": "Point", "coordinates": [-3.674674, 40.4041042]}}, {"Street": "Piso en calle de Embajadores", "District": "centro", "Property_Type": "flat", "Price": 850.0, "m2": 33.0, "Rooms": 1, "location": {"type": "Point", "coordinates": [-3.706873399999999, 40.4104941]}}, {"Street": "Piso en calle calle de S\u00e1nchez Pacheco", "District": "chamartin", "Property_Type": "flat", "Price": 900.0, "m2": 40.0, "Rooms": 2, "location": {"type": "Point", "coordinates": [-3.6746439, 40.4472154]}}, {"Street": "Piso en Arturo Soria", "District": "chamartin", "Property_Type": "flat", "Price": 1400.0, "m2": 100.0, "Rooms": 2, "location": {"type": "Point", "coordinates": [-3.6428201, 40.4431532]}}, {"Street": "D\u00faplex en Avenida de Manoteras", "District": "hortaleza", "Property_Type": "duplex", "Price": 1200.0, "m2": 128.0, "Rooms": 2, "location": {"type": "Point", "coordinates": [-3.6639431, 40.4880163]}}, {"Street": "Apartamento en Paseo de La Castellana", "District": "tetuan", "Property_Type": "flat", "Price": 2950.0, "m2": 150.0, "Rooms": 3, "location": {"type": "Point", "coordinates": [-3.6895319, 40.4370851]}}, {"Street": "Apartamento en Paseo del Pintor Rosales", "District": "moncloa", "Property_Type": "flat", "Price": 2200.0, "m2": 109.0, "Rooms": 2, "location": {"type": "Point", "coordinates": [-3.7170519, 40.4305432]}}, {"Street": "Piso en calle Jose Abascal", "District": "chamberi", "Property_Type": "flat", "Price": 4300.0, "m2": 380.0, "Rooms": 5, "location": {"type": "Point", "coordinates": [-3.693584199999999, 40.4379469]}}, {"Street": "Piso en calle de Seco", "District": "retiro", "Property_Type": "flat", "Price": 990.0, "m2": 62.0, "Rooms": 2, "location": {"type": "Point", "coordinates": [-3.6718374, 40.3993692]}}, {"Street": "Loft en calle Caballero de Gracia", "District": "centro", "Property_Type": "studio", "Price": 1200.0, "m2": 55.0, "Rooms": 1, "location": {"type": "Point", "coordinates": [-3.700312, 40.419377]}}, {"Street": "\u00c1tico en calle Doctor G\u00f3mez Ulla, n\u00ba 12", "District": "salamanca", "Property_Type": "penthouse", "Price": 2800.0, "m2": 200.0, "Rooms": 3, "location": {"type": "Point", "coordinates": [-3.6676318, 40.429513]}}, {"Street": "Apartamento en calle de San Raimundo, Madrid, n\u00ba 33", "District": "tetuan", "Property_Type": "flat", "Price": 900.0, "m2": 34.0, "Rooms": 2, "location": {"type": "Point", "coordinates": [-3.7016346, 40.4479097]}}, {"Street": "\u00c1tico en Plaza Plaza Mayor, n\u00ba 2", "District": "centro", "Property_Type": "penthouse", "Price": 1100.0, "m2": 70.0, "Rooms": 5, "location": {"type": "Point", "coordinates": [-3.7074009, 40.415511]}}, {"Street": "Apartamento en calle Sanchez Pacheco", "District": "chamartin", "Property_Type": "flat", "Price": 900.0, "m2": 59.0, "Rooms": 1, "location": {"type": "Point", "coordinates": [-3.6724928, 40.4447389]}}, {"Street": "Piso en Adelfas", "District": "retiro", "Property_Type": "flat", "Price": 1350.0, "m2": 120.0, "Rooms": 2, "location": {"type": "Point", "coordinates": [-3.6741361, 40.4007975]}}, {"Street": "Piso en Cuatro Caminos", "District": "tetuan", "Property_Type": "flat", "Price": 1200.0, "m2": 63.0, "Rooms": 2, "location": {"type": "Point", "coordinates": [-3.7013532, 40.4469349]}}, {"Street": "\u00c1tico en calle de Claudio Coello", "District": "salamanca", "Property_Type": "penthouse", "Price": 3400.0, "m2": 185.0, "Rooms": 2, "location": {"type": "Point", "coordinates": [-3.6971889, 40.4193576]}}, {"Street": "Piso en calle Lagasca", "District": "salamanca", "Property_Type": "flat", "Price": 1390.0, "m2": 78.0, "Rooms": 1, "location": {"type": "Point", "coordinates": [-3.684739899999999, 40.4333633]}}, {"Street": "Piso en Bellas Vistas", "District": "tetuan", "Property_Type": "flat", "Price": 800.0, "m2": 43.0, "Rooms": 1, "location": {"type": "Point", "coordinates": [-3.7089197, 40.4526738]}}, {"Street": "D\u00faplex en calle San Mart\u00edn de Porres, n\u00ba 14", "District": "moncloa", "Property_Type": "duplex", "Price": 850.0, "m2": 50.0, "Rooms": 1, "location": {"type": "Point", "coordinates": [-3.7283913, 40.4704968]}}, {"Street": "Piso en calle San Bernardo, n\u00ba 83", "District": "centro", "Property_Type": "flat", "Price": 1300.0, "m2": 76.0, "Rooms": 1, "location": {"type": "Point", "coordinates": [-3.7064185, 40.4282234]}}, {"Street": "Piso en calle Bolivia", "District": "chamartin", "Property_Type": "flat", "Price": 1700.0, "m2": 120.0, "Rooms": 3, "location": {"type": "Point", "coordinates": [-3.6777254, 40.4570228]}}, {"Street": "Piso en calle Paseo del Prado, n\u00ba 16", "District": "centro", "Property_Type": "flat", "Price": 1150.0, "m2": 47.0, "Rooms": 1, "location": {"type": "Point", "coordinates": [-3.6941903, 40.4141422]}}, {"Street": "Estudio en calle del Conde de Serrallo, n\u00ba 1", "District": "tetuan", "Property_Type": "studio", "Price": 675.0, "m2": 30.0, "Rooms": 1, "location": {"type": "Point", "coordinates": [-3.6921473, 40.4658983]}}, {"Street": "Piso en Lista", "District": "salamanca", "Property_Type": "flat", "Price": 4200.0, "m2": 227.0, "Rooms": 4, "location": {"type": "Point", "coordinates": [-3.671107, 40.430508]}}, {"Street": "Piso en Universidad-Malasa\u00f1a", "District": "centro", "Property_Type": "flat", "Price": 1400.0, "m2": 90.0, "Rooms": 2, "location": {"type": "Point", "coordinates": [-3.706918, 40.424238]}}, {"Street": "Piso en calle Valdeverdeja", "District": "moncloa", "Property_Type": "flat", "Price": 900.0, "m2": 50.0, "Rooms": 1, "location": {"type": "Point", "coordinates": [-3.7142832, 40.4681797]}}, {"Street": "Piso en calle de Alcal\u00e1", "District": "salamanca", "Property_Type": "flat", "Price": 2650.0, "m2": 138.0, "Rooms": 3, "location": {"type": "Point", "coordinates": [-3.646351, 40.43412060000001]}}, {"Street": "Piso en calle de Ana de Austria, Madrid, n\u00ba 46", "District": "hortaleza", "Property_Type": "flat", "Price": 1600.0, "m2": 120.0, "Rooms": 3, "location": {"type": "Point", "coordinates": [-3.6529805, 40.4984922]}}, {"Street": "Piso en calle del Amparo", "District": "centro", "Property_Type": "flat", "Price": 850.0, "m2": 37.0, "Rooms": 1, "location": {"type": "Point", "coordinates": [-3.702142799999999, 40.4085644]}}, {"Street": "Piso en calle Avenida de Men\u00e9ndez Pelayo", "District": "retiro", "Property_Type": "flat", "Price": 1000.0, "m2": 70.0, "Rooms": 2, "location": {"type": "Point", "coordinates": [-3.6807097, 40.4051017]}}, {"Street": "Apartamento en calle Ruiz Oca\u00f1a, n\u00ba 3", "District": "salamanca", "Property_Type": "flat", "Price": 990.0, "m2": 66.0, "Rooms": 2, "location": {"type": "Point", "coordinates": [-3.6666696, 40.4380503]}}, {"Street": "Piso en calle Conde de Vistahermosa", "District": "centro", "Property_Type": "flat", "Price": 850.0, "m2": 60.0, "Rooms": 2, "location": {"type": "Point", "coordinates": [-3.711156, 40.393883]}}, {"Street": "Casa adosada en calle Valle de Pas, Madrid", "District": "moncloa", "Property_Type": "flat", "Price": 3500.0, "m2": 350.0, "Rooms": 4, "location": {"type": "Point", "coordinates": [-3.7787714, 40.44961199999999]}}, {"Street": "Piso en calle de Ayala", "District": "salamanca", "Property_Type": "flat", "Price": 2300.0, "m2": 145.0, "Rooms": 3, "location": {"type": "Point", "coordinates": [-3.6888413, 40.4278716]}}, {"Street": "Piso en Ciudad Universitaria", "District": "moncloa", "Property_Type": "flat", "Price": 1850.0, "m2": 130.0, "Rooms": 3, "location": {"type": "Point", "coordinates": [-3.7187523, 40.4533216]}}, {"Street": "\u00c1tico en calle Plaza del Liceo", "District": "hortaleza", "Property_Type": "penthouse", "Price": 1900.0, "m2": 103.0, "Rooms": 2, "location": {"type": "Point", "coordinates": [-3.6444237, 40.4571894]}}, {"Street": "Piso en calle Alcalde Henche de La Plata, n\u00ba 7", "District": "hortaleza", "Property_Type": "flat", "Price": 1300.0, "m2": 94.0, "Rooms": 2, "location": {"type": "Point", "coordinates": [-3.6498303, 40.4881076]}}, {"Street": "Piso en calle Coraz\u00f3n de Maria", "District": "salamanca", "Property_Type": "flat", "Price": 1300.0, "m2": 80.0, "Rooms": 3, "location": {"type": "Point", "coordinates": [-3.6668846, 40.4444325]}}, {"Street": "Piso en calle Benito de Castro", "District": "salamanca", "Property_Type": "flat", "Price": 750.0, "m2": 45.0, "Rooms": 1, "location": {"type": "Point", "coordinates": [-3.6676473, 40.4263882]}}, {"Street": "Piso en Justicia-Chueca", "District": "centro", "Property_Type": "flat", "Price": 3000.0, "m2": 170.0, "Rooms": 2, "location": {"type": "Point", "coordinates": [-3.6989207, 40.4234293]}}, {"Street": "Piso en Barrio Malasa\u00f1a-Universidad", "District": "centro", "Property_Type": "flat", "Price": 850.0, "m2": 45.0, "Rooms": 1, "location": {"type": "Point", "coordinates": [-3.706918, 40.424238]}}, {"Street": "Apartamento en calle Bocangel", "District": "salamanca", "Property_Type": "flat", "Price": 900.0, "m2": 70.0, "Rooms": 2, "location": {"type": "Point", "coordinates": [-3.662287699999999, 40.4269108]}}, {"Street": "Apartamento en calle del Barco", "District": "centro", "Property_Type": "flat", "Price": 900.0, "m2": 31.0, "Rooms": 1, "location": {"type": "Point", "coordinates": [-3.7021522, 40.4236047]}}, {"Street": "Piso en calle de Bremen", "District": "salamanca", "Property_Type": "flat", "Price": 1250.0, "m2": 140.0, "Rooms": 3, "location": {"type": "Point", "coordinates": [-3.671107, 40.430508]}}, {"Street": "Piso en calle Barbieri", "District": "centro", "Property_Type": "flat", "Price": 1700.0, "m2": 190.0, "Rooms": 2, "location": {"type": "Point", "coordinates": [-3.6980806, 40.421289]}}, {"Street": "Piso en calle Julian Besteiro", "District": "tetuan", "Property_Type": "flat", "Price": 1600.0, "m2": 149.0, "Rooms": 4, "location": {"type": "Point", "coordinates": [-3.695224, 40.4580549]}}, {"Street": "Piso en Embajadores-Lavapi\u00e9s", "District": "centro", "Property_Type": "flat", "Price": 1400.0, "m2": 89.0, "Rooms": 2, "location": {"type": "Point", "coordinates": [-3.7015352, 40.4088507]}}, {"Street": "Piso en calle San Mart\u00edn de Porres", "District": "moncloa", "Property_Type": "flat", "Price": 1400.0, "m2": 82.0, "Rooms": 2, "location": {"type": "Point", "coordinates": [-3.706440499999999, 40.4678353]}}, {"Street": "Piso en Madrid de los Austrias", "District": "centro", "Property_Type": "flat", "Price": 1150.0, "m2": 68.0, "Rooms": 2, "location": {"type": "Point", "coordinates": [-3.7285754, 40.4056108]}}, {"Street": "Piso en calle Traves\u00eda de San Mateo", "District": "centro", "Property_Type": "flat", "Price": 2300.0, "m2": 136.0, "Rooms": 3, "location": {"type": "Point", "coordinates": [-3.6983376, 40.426052]}}, {"Street": "Apartamento en Prosperidad", "District": "chamartin", "Property_Type": "flat", "Price": 800.0, "m2": 50.0, "Rooms": 1, "location": {"type": "Point", "coordinates": [-3.6725187, 40.4447271]}}, {"Street": "Apartamento en Valdeacederas", "District": "tetuan", "Property_Type": "flat", "Price": 800.0, "m2": 53.0, "Rooms": 1, "location": {"type": "Point", "coordinates": [-3.6986787, 40.4632134]}}, {"Street": "Piso en calle Atocha, n\u00ba 96", "District": "centro", "Property_Type": "flat", "Price": 1650.0, "m2": 80.0, "Rooms": 2, "location": {"type": "Point", "coordinates": [-3.6959384, 40.4105719]}}, {"Street": "Piso en Almagro", "District": "chamberi", "Property_Type": "flat", "Price": 5200.0, "m2": 263.0, "Rooms": 3, "location": {"type": "Point", "coordinates": [-3.6923777, 40.4306895]}}, {"Street": "Piso en calle Plaza de La Republica del Ecuador", "District": "salamanca", "Property_Type": "flat", "Price": 1400.0, "m2": 81.0, "Rooms": 2, "location": {"type": "Point", "coordinates": [-3.6779728, 40.4572002]}}, {"Street": "Piso en calle Palmera", "District": "tetuan", "Property_Type": "flat", "Price": 370.0, "m2": 0.0, "Rooms": 0, "location": {"type": "Point", "coordinates": [-3.6938064, 40.4725683]}}, {"Street": "Casa adosada en calle calle de Melchor Rodr\u00edguez", "District": "moncloa", "Property_Type": "flat", "Price": 2700.0, "m2": 291.0, "Rooms": 4, "location": {"type": "Point", "coordinates": [-3.7778882, 40.4548822]}}, {"Street": "Piso en Almenara", "District": "tetuan", "Property_Type": "flat", "Price": 1200.0, "m2": 180.0, "Rooms": 3, "location": {"type": "Point", "coordinates": [-0.2232937, 39.753449]}}, {"Street": "Apartamento en calle de La Concepci\u00f3n Jer\u00f3nima", "District": "centro", "Property_Type": "flat", "Price": 900.0, "m2": 36.0, "Rooms": 1, "location": {"type": "Point", "coordinates": [-3.704241, 40.4140942]}}, {"Street": "\u00c1tico en calle Zurbano", "District": "chamberi", "Property_Type": "penthouse", "Price": 1700.0, "m2": 90.0, "Rooms": 2, "location": {"type": "Point", "coordinates": [-3.6971889, 40.4193576]}}, {"Street": "Estudio en calle Joaqu\u00edn Dicenta", "District": "tetuan", "Property_Type": "studio", "Price": 800.0, "m2": 27.0, "Rooms": 1, "location": {"type": "Point", "coordinates": [-3.6948119, 40.4715182]}}, {"Street": "Estudio en calle Sanchez Barcaiztegui", "District": "retiro", "Property_Type": "studio", "Price": 750.0, "m2": 32.0, "Rooms": 1, "location": {"type": "Point", "coordinates": [-3.67473, 40.4037537]}}, {"Street": "Piso en Embajadores-Lavapi\u00e9s", "District": "centro", "Property_Type": "flat", "Price": 750.0, "m2": 41.0, "Rooms": 2, "location": {"type": "Point", "coordinates": [-3.7015352, 40.4088507]}}, {"Street": "Piso en calle de Lucio del Valle", "District": "chamberi", "Property_Type": "flat", "Price": 1949.0, "m2": 93.0, "Rooms": 3, "location": {"type": "Point", "coordinates": [-3.7084783, 40.4379486]}}, {"Street": "Piso en calle Victor Andres Belaunde", "District": "chamartin", "Property_Type": "flat", "Price": 1325.0, "m2": 92.0, "Rooms": 2, "location": {"type": "Point", "coordinates": [-3.6792362, 40.455164]}}, {"Street": "Apartamento en calle Galileo", "District": "chamberi", "Property_Type": "flat", "Price": 750.0, "m2": 30.0, "Rooms": 1, "location": {"type": "Point", "coordinates": [-3.7091414, 40.4303238]}}, {"Street": "Piso en calle Ventura de La Vega, n\u00ba 7", "District": "centro", "Property_Type": "flat", "Price": 1300.0, "m2": 70.0, "Rooms": 2, "location": {"type": "Point", "coordinates": [-3.6987164, 40.4157035]}}, {"Street": "Piso en Retiro Adelfas", "District": "retiro", "Property_Type": "flat", "Price": 1650.0, "m2": 108.0, "Rooms": 3, "location": {"type": "Point", "coordinates": [-3.6718374, 40.3993692]}}, {"Street": "Casa adosada en calle Avenda\u00f1o", "District": "retiro", "Property_Type": "flat", "Price": 5400.0, "m2": 359.0, "Rooms": 6, "location": {"type": "Point", "coordinates": [-3.6723894, 40.4096906]}}, {"Street": "Piso en calle Palafox", "District": "chamberi", "Property_Type": "flat", "Price": 1800.0, "m2": 120.0, "Rooms": 4, "location": {"type": "Point", "coordinates": [-3.7014174, 40.4320172]}}, {"Street": "Piso en calle Colombia", "District": "chamartin", "Property_Type": "flat", "Price": 1200.0, "m2": 73.0, "Rooms": 2, "location": {"type": "Point", "coordinates": [-3.6777254, 40.4570228]}}, {"Street": "Piso en Vallehermoso-Chamberi", "District": "moncloa", "Property_Type": "flat", "Price": 2800.0, "m2": 309.0, "Rooms": 3, "location": {"type": "Point", "coordinates": [-3.7084783, 40.4379486]}}, {"Street": "Piso en calle Alcalde Henche de La Plata", "District": "hortaleza", "Property_Type": "flat", "Price": 1300.0, "m2": 80.0, "Rooms": 2, "location": {"type": "Point", "coordinates": [-3.649835, 40.4904792]}}, {"Street": "Piso en calle Valencia", "District": "centro", "Property_Type": "flat", "Price": 1400.0, "m2": 94.0, "Rooms": 3, "location": {"type": "Point", "coordinates": [-3.7003837, 40.40734519999999]}}, {"Street": "Piso en Castillejos", "District": "tetuan", "Property_Type": "flat", "Price": 1500.0, "m2": 66.0, "Rooms": 2, "location": {"type": "Point", "coordinates": [-3.6954509, 40.4600771]}}, {"Street": "Piso en calle de Cenicero", "District": "centro", "Property_Type": "flat", "Price": 1200.0, "m2": 45.0, "Rooms": 2, "location": {"type": "Point", "coordinates": [-3.6933092, 40.4107004]}}, {"Street": "Piso en Ni\u00f1o Jes\u00fas", "District": "retiro", "Property_Type": "flat", "Price": 1400.0, "m2": 88.0, "Rooms": 3, "location": {"type": "Point", "coordinates": [-3.6761978, 40.4109403]}}, {"Street": "Piso en calle calle de Lope de Vega", "District": "centro", "Property_Type": "flat", "Price": 900.0, "m2": 44.0, "Rooms": 1, "location": {"type": "Point", "coordinates": [-3.6983821, 40.4138922]}}, {"Street": "Piso en Madrid", "District": "chamberi", "Property_Type": "flat", "Price": 1550.0, "m2": 106.0, "Rooms": 3, "location": {"type": "Point", "coordinates": [-3.6964077, 40.403833]}}, {"Street": "Loft en Virgen del Cortijo-Manoteras", "District": "hortaleza", "Property_Type": "studio", "Price": 950.0, "m2": 97.0, "Rooms": 1, "location": {"type": "Point", "coordinates": [-3.6610546, 40.4874603]}}, {"Street": "D\u00faplex en calle Joaquin Maria L\u00f2pez, n\u00ba 74", "District": "moncloa", "Property_Type": "duplex", "Price": 1200.0, "m2": 74.0, "Rooms": 2, "location": {"type": "Point", "coordinates": [-3.7175414, 40.437954]}}, {"Street": "Apartamento en Hortaleza", "District": "hortaleza", "Property_Type": "flat", "Price": 1200.0, "m2": 111.0, "Rooms": 3, "location": {"type": "Point", "coordinates": [-3.6669162, 40.4852008]}}, {"Street": "Piso en calle Santa Engracia", "District": "chamberi", "Property_Type": "flat", "Price": 2800.0, "m2": 200.0, "Rooms": 5, "location": {"type": "Point", "coordinates": [-3.7000138, 40.4373942]}}, {"Street": "Piso en Madrid", "District": "retiro", "Property_Type": "flat", "Price": 1300.0, "m2": 89.0, "Rooms": 3, "location": {"type": "Point", "coordinates": [-3.6964077, 40.403833]}}, {"Street": "Piso en Guindalera", "District": "salamanca", "Property_Type": "flat", "Price": 1300.0, "m2": 74.0, "Rooms": 1, "location": {"type": "Point", "coordinates": [-3.6629215, 40.4386703]}}, {"Street": "Piso en calle calle de Alc\u00e1ntara", "District": "salamanca", "Property_Type": "flat", "Price": 1000.0, "m2": 45.0, "Rooms": 1, "location": {"type": "Point", "coordinates": [-3.6862323, 40.4380946]}}, {"Street": "Apartamento en calle La Paz", "District": "centro", "Property_Type": "flat", "Price": 3200.0, "m2": 220.0, "Rooms": 3, "location": {"type": "Point", "coordinates": [-3.7013734, 40.4152335]}}, {"Street": "Apartamento en calle Ambrosio Vallejo", "District": "tetuan", "Property_Type": "flat", "Price": 1300.0, "m2": 87.0, "Rooms": 3, "location": {"type": "Point", "coordinates": [-3.7067751, 40.45738]}}, {"Street": "Apartamento en calle Manuel Fern\u00e1ndez y Gonz\u00e1lez", "District": "centro", "Property_Type": "flat", "Price": 850.0, "m2": 32.0, "Rooms": 1, "location": {"type": "Point", "coordinates": [-3.7003789, 40.415444]}}, {"Street": "Estudio en calle Miosotis, n\u00ba 72", "District": "tetuan", "Property_Type": "studio", "Price": 800.0, "m2": 50.0, "Rooms": 1, "location": {"type": "Point", "coordinates": [-3.7039647, 40.4651322]}}, {"Street": "Piso en calle Espiritu Santo, n\u00ba 32", "District": "centro", "Property_Type": "flat", "Price": 2600.0, "m2": 55.0, "Rooms": 2, "location": {"type": "Point", "coordinates": [-3.7043615, 40.4255495]}}, {"Street": "Piso en calle calle del Mediod\u00eda Grande", "District": "centro", "Property_Type": "flat", "Price": 1700.0, "m2": 50.0, "Rooms": 1, "location": {"type": "Point", "coordinates": [-3.712553, 40.4076398]}}, {"Street": "Piso en calle calle del Conde de Pe\u00f1alver", "District": "salamanca", "Property_Type": "flat", "Price": 1900.0, "m2": 90.0, "Rooms": 2, "location": {"type": "Point", "coordinates": [-3.675441999999999, 40.430473]}}, {"Street": "Piso en calle de Crist\u00f3bal Bordi\u00fa", "District": "chamberi", "Property_Type": "flat", "Price": 850.0, "m2": 50.0, "Rooms": 2, "location": {"type": "Point", "coordinates": [-3.6985343, 40.4431148]}}, {"Street": "Piso en Pr\u00edncipe P\u00edo", "District": "moncloa", "Property_Type": "flat", "Price": 1300.0, "m2": 85.0, "Rooms": 2, "location": {"type": "Point", "coordinates": [-3.7201481, 40.4213634]}}, {"Street": "Piso en calle de Pizarro", "District": "centro", "Property_Type": "flat", "Price": 1200.0, "m2": 58.0, "Rooms": 2, "location": {"type": "Point", "coordinates": [-3.70962, 40.42132]}}, {"Street": "Apartamento en calle Manuel Fern\u00e1ndez y Gonz\u00e1lez", "District": "centro", "Property_Type": "flat", "Price": 850.0, "m2": 35.0, "Rooms": 1, "location": {"type": "Point", "coordinates": [-3.7003789, 40.415444]}}, {"Street": "Piso en Moncloa - Arg\u00fcelles", "District": "moncloa", "Property_Type": "flat", "Price": 1550.0, "m2": 91.0, "Rooms": 2, "location": {"type": "Point", "coordinates": [-3.721413, 40.4294136]}}, {"Street": "Chalet pareado en El Encinar de los Reyes", "District": "hortaleza", "Property_Type": "chalet", "Price": 3600.0, "m2": 260.0, "Rooms": 4, "location": {"type": "Point", "coordinates": [-3.647098, 40.5055726]}}, {"Street": "Piso en calle Serrano", "District": "salamanca", "Property_Type": "flat", "Price": 2500.0, "m2": 120.0, "Rooms": 3, "location": {"type": "Point", "coordinates": [-3.6865147, 40.4375619]}}, {"Street": "Apartamento en Plaza Nuestra Se\u00f1ora del Pilar", "District": "chamartin", "Property_Type": "flat", "Price": 1600.0, "m2": 110.0, "Rooms": 3, "location": {"type": "Point", "coordinates": [-3.6735424, 40.4395296]}}, {"Street": "Piso en Avenida Men\u00e9ndez Pelayo", "District": "retiro", "Property_Type": "flat", "Price": 1050.0, "m2": 55.0, "Rooms": 2, "location": {"type": "Point", "coordinates": [-3.6807097, 40.4051017]}}, {"Street": "Piso en calle calle Sincelejo", "District": "chamartin", "Property_Type": "flat", "Price": 925.0, "m2": 30.0, "Rooms": 1, "location": {"type": "Point", "coordinates": [-3.6356608, 40.4740451]}}, {"Street": "\u00c1tico en calle Vel\u00e1zquez", "District": "salamanca", "Property_Type": "penthouse", "Price": 3800.0, "m2": 202.0, "Rooms": 3, "location": {"type": "Point", "coordinates": [-3.6971889, 40.4193576]}}, {"Street": "\u00c1tico en calle Liebre", "District": "hortaleza", "Property_Type": "penthouse", "Price": 1200.0, "m2": 60.0, "Rooms": 1, "location": {"type": "Point", "coordinates": [-3.6483993, 40.4580882]}}, {"Street": "Piso en Centro", "District": "centro", "Property_Type": "flat", "Price": 1250.0, "m2": 45.0, "Rooms": 1, "location": {"type": "Point", "coordinates": [-3.6964077, 40.403833]}}, {"Street": "Apartamento en calle de Atocha, n\u00ba 47", "District": "centro", "Property_Type": "flat", "Price": 900.0, "m2": 52.0, "Rooms": 1, "location": {"type": "Point", "coordinates": [-3.704224, 40.4142904]}}, {"Street": "Piso en calle calle de Narv\u00e1ez", "District": "retiro", "Property_Type": "flat", "Price": 1890.0, "m2": 60.0, "Rooms": 2, "location": {"type": "Point", "coordinates": [-3.6762424, 40.4208912]}}, {"Street": "Piso en calle El Amparo", "District": "centro", "Property_Type": "flat", "Price": 800.0, "m2": 30.0, "Rooms": 1, "location": {"type": "Point", "coordinates": [-3.7038147, 40.3874077]}}, {"Street": "Piso en calle calle de Ibiza", "District": "retiro", "Property_Type": "flat", "Price": 1660.0, "m2": 111.0, "Rooms": 4, "location": {"type": "Point", "coordinates": [-3.6748051, 40.418032]}}, {"Street": "Piso en calle T\u00e9llez, n\u00ba 5", "District": "retiro", "Property_Type": "flat", "Price": 1500.0, "m2": 100.0, "Rooms": 3, "location": {"type": "Point", "coordinates": [-3.6825287, 40.4039134]}}, {"Street": "Piso en calle Orense, n\u00ba 6", "District": "tetuan", "Property_Type": "flat", "Price": 1250.0, "m2": 70.0, "Rooms": 1, "location": {"type": "Point", "coordinates": [-3.6952201, 40.4479462]}}, {"Street": "Piso en calle Aguirre, n\u00ba 3", "District": "retiro", "Property_Type": "flat", "Price": 1400.0, "m2": 75.0, "Rooms": 2, "location": {"type": "Point", "coordinates": [-3.6812409, 40.4218268]}}, {"Street": "Piso en calle calle de Sta Teresa", "District": "centro", "Property_Type": "flat", "Price": 1550.0, "m2": 50.0, "Rooms": 1, "location": {"type": "Point", "coordinates": [-3.6733793, 40.4296398]}}, {"Street": "D\u00faplex en Almagro", "District": "chamberi", "Property_Type": "duplex", "Price": 2000.0, "m2": 125.0, "Rooms": 3, "location": {"type": "Point", "coordinates": [-3.41414, 40.26038]}}, {"Street": "Piso en calle calle de Matilde Diez,", "District": "salamanca", "Property_Type": "flat", "Price": 1500.0, "m2": 55.0, "Rooms": 1, "location": {"type": "Point", "coordinates": [-3.6736673, 40.4460167]}}, {"Street": "Apartamento en calle Fuencarral, n\u00ba 96", "District": "centro", "Property_Type": "flat", "Price": 1900.0, "m2": 129.0, "Rooms": 3, "location": {"type": "Point", "coordinates": [-3.7005951, 40.4234202]}}, {"Street": "Piso en Castilla", "District": "chamartin", "Property_Type": "flat", "Price": 2900.0, "m2": 167.0, "Rooms": 4, "location": {"type": "Point", "coordinates": [-3.697837899999999, 40.4602609]}}, {"Street": "D\u00faplex en calle Fuentes, n\u00ba 5", "District": "centro", "Property_Type": "duplex", "Price": 1150.0, "m2": 90.0, "Rooms": 1, "location": {"type": "Point", "coordinates": [-3.7087731, 40.4170182]}}, {"Street": "Piso en Avenida del General Per\u00f3n", "District": "tetuan", "Property_Type": "flat", "Price": 1500.0, "m2": 110.0, "Rooms": 2, "location": {"type": "Point", "coordinates": [-3.6993734, 40.4533446]}}, {"Street": "Apartamento en calle de R\u00edos Rosas", "District": "chamberi", "Property_Type": "flat", "Price": 2300.0, "m2": 147.0, "Rooms": 4, "location": {"type": "Point", "coordinates": [-3.7014559, 40.441724]}}, {"Street": "Piso en Cuatro Caminos", "District": "tetuan", "Property_Type": "flat", "Price": 2800.0, "m2": 190.0, "Rooms": 3, "location": {"type": "Point", "coordinates": [-3.7013532, 40.4469349]}}, {"Street": "Piso en calle Paseo de La Habana, n\u00ba 72", "District": "chamartin", "Property_Type": "flat", "Price": 2600.0, "m2": 120.0, "Rooms": 3, "location": {"type": "Point", "coordinates": [-3.6836688, 40.4540791]}}, {"Street": "Apartamento en calle del Barquillo, n\u00ba 12", "District": "centro", "Property_Type": "flat", "Price": 7500.0, "m2": 293.0, "Rooms": 4, "location": {"type": "Point", "coordinates": [-3.6957851, 40.4228348]}}, {"Street": "Apartamento en calle de Goya, Madrid", "District": "salamanca", "Property_Type": "flat", "Price": 5000.0, "m2": 212.0, "Rooms": 3, "location": {"type": "Point", "coordinates": [-3.6789229, 40.4251403]}}, {"Street": "Apartamento en calle del Pez", "District": "centro", "Property_Type": "flat", "Price": 1400.0, "m2": 85.0, "Rooms": 2, "location": {"type": "Point", "coordinates": [-3.7058351, 40.4238695]}}, {"Street": "Piso en calle Numancia, n\u00ba 2", "District": "tetuan", "Property_Type": "flat", "Price": 950.0, "m2": 70.0, "Rooms": 1, "location": {"type": "Point", "coordinates": [-3.7128948, 40.4531698]}}, {"Street": "Piso en Hortaleza-Piovera", "District": "hortaleza", "Property_Type": "flat", "Price": 2950.0, "m2": 246.0, "Rooms": 5, "location": {"type": "Point", "coordinates": [-3.6274802, 40.4593894]}}, {"Street": "Apartamento en calle del Divino Pastor", "District": "centro", "Property_Type": "flat", "Price": 900.0, "m2": 50.0, "Rooms": 1, "location": {"type": "Point", "coordinates": [-3.7063043, 40.4285587]}}, {"Street": "Piso en calle Colombia", "District": "chamartin", "Property_Type": "flat", "Price": 1600.0, "m2": 100.0, "Rooms": 2, "location": {"type": "Point", "coordinates": [-3.6777254, 40.4570228]}}, {"Street": "Piso en Avenida Filipinas, n\u00ba 1 Bis", "District": "chamberi", "Property_Type": "flat", "Price": 950.0, "m2": 57.0, "Rooms": 1, "location": {"type": "Point", "coordinates": [-3.7125385, 40.4394342]}}, {"Street": "Piso en calle Orense", "District": "tetuan", "Property_Type": "flat", "Price": 2200.0, "m2": 172.0, "Rooms": 5, "location": {"type": "Point", "coordinates": [-3.6947215, 40.4587822]}}, {"Street": "Piso en calle calle de La Cruz", "District": "centro", "Property_Type": "flat", "Price": 1350.0, "m2": 40.0, "Rooms": 1, "location": {"type": "Point", "coordinates": [-3.7004821, 40.4157873]}}, {"Street": "Piso en calle Ferraz", "District": "moncloa", "Property_Type": "flat", "Price": 5000.0, "m2": 317.0, "Rooms": 5, "location": {"type": "Point", "coordinates": [-3.7198331, 40.42857540000001]}}, {"Street": "Apartamento en calle Maestro Alonso", "District": "salamanca", "Property_Type": "flat", "Price": 1500.0, "m2": 92.0, "Rooms": 3, "location": {"type": "Point", "coordinates": [-3.666669, 40.429426]}}, {"Street": "Chalet en Casaquemada", "District": "moncloa", "Property_Type": "chalet", "Price": 18000.0, "m2": 1190.0, "Rooms": 1, "location": {"type": "Point", "coordinates": [-3.49537, 40.28337]}}, {"Street": "Piso en Cuatro Caminos", "District": "tetuan", "Property_Type": "flat", "Price": 1500.0, "m2": 105.0, "Rooms": 2, "location": {"type": "Point", "coordinates": [-3.7013532, 40.4469349]}}, {"Street": "Apartamento en calle Corredera Baja de San Pablo", "District": "centro", "Property_Type": "flat", "Price": 2050.0, "m2": 121.0, "Rooms": 1, "location": {"type": "Point", "coordinates": [-3.7035898, 40.42274870000001]}}, {"Street": "Apartamento en calle Diego de Le\u00f3n", "District": "salamanca", "Property_Type": "flat", "Price": 1500.0, "m2": 60.0, "Rooms": 1, "location": {"type": "Point", "coordinates": [-3.6851054, 40.4349193]}}, {"Street": "Apartamento en calle del Alcalde S\u00e1inz de Baranda, n\u00ba 20", "District": "retiro", "Property_Type": "flat", "Price": 1250.0, "m2": 90.0, "Rooms": 2, "location": {"type": "Point", "coordinates": [-3.67646, 40.4177225]}}, {"Street": "Piso en calle Juan Bravo", "District": "salamanca", "Property_Type": "flat", "Price": 4500.0, "m2": 160.0, "Rooms": 3, "location": {"type": "Point", "coordinates": [-3.6742632, 40.4322116]}}, {"Street": "Apartamento en Chamart\u00edn", "District": "chamartin", "Property_Type": "flat", "Price": 950.0, "m2": 41.0, "Rooms": 1, "location": {"type": "Point", "coordinates": [-3.6724928, 40.4447389]}}, {"Street": "Apartamento en calle de Fuencarral, n\u00ba 92", "District": "centro", "Property_Type": "flat", "Price": 2800.0, "m2": 160.0, "Rooms": 4, "location": {"type": "Point", "coordinates": [-3.7005951, 40.4234202]}}, {"Street": "Piso en calle Castello, n\u00ba 117", "District": "salamanca", "Property_Type": "flat", "Price": 2500.0, "m2": 115.0, "Rooms": 2, "location": {"type": "Point", "coordinates": [-3.6806665, 40.4371154]}}, {"Street": "Apartamento en calle de Espronceda", "District": "chamberi", "Property_Type": "flat", "Price": 1050.0, "m2": 51.0, "Rooms": 2, "location": {"type": "Point", "coordinates": [-3.7014559, 40.441724]}}, {"Street": "Casa pareada en Valdebebas-Valdefuentes", "District": "hortaleza", "Property_Type": "flat", "Price": 2000.0, "m2": 296.0, "Rooms": 5, "location": {"type": "Point", "coordinates": [-3.6163346, 40.482641]}}, {"Street": "Piso en calle Hermosilla", "District": "salamanca", "Property_Type": "flat", "Price": 1590.0, "m2": 117.0, "Rooms": 2, "location": {"type": "Point", "coordinates": [-3.671107, 40.430508]}}, {"Street": "Piso en Palacio", "District": "centro", "Property_Type": "flat", "Price": 5000.0, "m2": 360.0, "Rooms": 6, "location": {"type": "Point", "coordinates": [-3.712553, 40.4076398]}}, {"Street": "Piso en calle calle Virgen del Sagrario", "District": "salamanca", "Property_Type": "flat", "Price": 1100.0, "m2": 50.0, "Rooms": 1, "location": {"type": "Point", "coordinates": [-3.6477866, 40.4345007]}}, {"Street": "Apartamento en calle de Zurbano", "District": "chamberi", "Property_Type": "flat", "Price": 1200.0, "m2": 38.0, "Rooms": 1, "location": {"type": "Point", "coordinates": [-3.6933088, 40.430145]}}, {"Street": "Piso en Arapiles", "District": "chamberi", "Property_Type": "flat", "Price": 1400.0, "m2": 0.0, "Rooms": 0, "location": {"type": "Point", "coordinates": [-3.7086506, 40.43512459999999]}}, {"Street": "Piso en Salamanca - Recoletos", "District": "salamanca", "Property_Type": "flat", "Price": 7000.0, "m2": 250.0, "Rooms": 5, "location": {"type": "Point", "coordinates": [-3.6733793, 40.4296398]}}, {"Street": "Piso en calle Hermosilla,", "District": "salamanca", "Property_Type": "flat", "Price": 2500.0, "m2": 80.0, "Rooms": 2, "location": {"type": "Point", "coordinates": [-3.6738317, 40.4260372]}}, {"Street": "Apartamento en calle de O'donnell, n\u00ba 40", "District": "retiro", "Property_Type": "flat", "Price": 2000.0, "m2": 160.0, "Rooms": 3, "location": {"type": "Point", "coordinates": [-3.6747819, 40.4201976]}}, {"Street": "Piso en Avenida Valdemarin", "District": "moncloa", "Property_Type": "flat", "Price": 2350.0, "m2": 166.0, "Rooms": 4, "location": {"type": "Point", "coordinates": [-3.7727247, 40.4703981]}}, {"Street": "Piso en calle Hermano Garate", "District": "tetuan", "Property_Type": "flat", "Price": 1600.0, "m2": 135.0, "Rooms": 3, "location": {"type": "Point", "coordinates": [-3.6962568, 40.4587655]}}, {"Street": "Piso en calle Hilarion Eslava", "District": "chamberi", "Property_Type": "flat", "Price": 1000.0, "m2": 49.0, "Rooms": 1, "location": {"type": "Point", "coordinates": [-3.716810799999999, 40.4342953]}}, {"Street": "Apartamento en Avenida de Alfonso XIII", "District": "chamartin", "Property_Type": "flat", "Price": 1600.0, "m2": 105.0, "Rooms": 2, "location": {"type": "Point", "coordinates": [-3.6673399, 40.45101349999999]}}, {"Street": "D\u00faplex en Moncloa", "District": "moncloa", "Property_Type": "duplex", "Price": 2950.0, "m2": 250.0, "Rooms": 4, "location": {"type": "Point", "coordinates": [-3.7284306, 40.470402]}}, {"Street": "Piso en Recoletos", "District": "salamanca", "Property_Type": "flat", "Price": 2000.0, "m2": 81.0, "Rooms": 2, "location": {"type": "Point", "coordinates": [-3.6866377, 40.4238593]}}, {"Street": "D\u00faplex en calle Avenida de Europa", "District": "moncloa", "Property_Type": "duplex", "Price": 1815.0, "m2": 119.0, "Rooms": 3, "location": {"type": "Point", "coordinates": [-3.7935352, 40.4382616]}}, {"Street": "\u00c1tico en calle de San Bernardino", "District": "centro", "Property_Type": "penthouse", "Price": 2500.0, "m2": 130.0, "Rooms": 3, "location": {"type": "Point", "coordinates": [-3.7071044, 40.4263212]}}, {"Street": "Apartamento en calle de Fuencarral", "District": "centro", "Property_Type": "flat", "Price": 1600.0, "m2": 58.0, "Rooms": 1, "location": {"type": "Point", "coordinates": [-3.7005951, 40.4234202]}}, {"Street": "Chalet en Palomas", "District": "hortaleza", "Property_Type": "chalet", "Price": 2500.0, "m2": 200.0, "Rooms": 5, "location": {"type": "Point", "coordinates": [-3.6198863, 40.4526594]}}, {"Street": "Apartamento en calle Alameda, n\u00ba 16", "District": "centro", "Property_Type": "flat", "Price": 1345.0, "m2": 58.0, "Rooms": 2, "location": {"type": "Point", "coordinates": [-3.6945156, 40.4111493]}}, {"Street": "\u00c1tico en Chamart\u00edn", "District": "tetuan", "Property_Type": "penthouse", "Price": 4300.0, "m2": 200.0, "Rooms": 3, "location": {"type": "Point", "coordinates": [-3.6855729, 40.4697982]}}, {"Street": "Apartamento en Salamanca", "District": "salamanca", "Property_Type": "flat", "Price": 2100.0, "m2": 110.0, "Rooms": 2, "location": {"type": "Point", "coordinates": [-5.663330999999999, 40.963884]}}, {"Street": "Apartamento en calle Vel\u00e1zquez", "District": "salamanca", "Property_Type": "flat", "Price": 2000.0, "m2": 114.0, "Rooms": 3, "location": {"type": "Point", "coordinates": [-3.6842169, 40.4281454]}}, {"Street": "Piso en calle Poeta Joan Maragall", "District": "tetuan", "Property_Type": "flat", "Price": 950.0, "m2": 60.0, "Rooms": 1, "location": {"type": "Point", "coordinates": [-3.6917884, 40.4634587]}}, {"Street": "Piso en calle Arriaza", "District": "moncloa", "Property_Type": "flat", "Price": 800.0, "m2": 50.0, "Rooms": 1, "location": {"type": "Point", "coordinates": [-3.7159636, 40.4207585]}}, {"Street": "Casa en calle Estanislao Gomez", "District": "hortaleza", "Property_Type": "flat", "Price": 3800.0, "m2": 430.0, "Rooms": 6, "location": {"type": "Point", "coordinates": [-3.609632, 40.4521172]}}, {"Street": "Apartamento en calle de Espartinas", "District": "salamanca", "Property_Type": "flat", "Price": 2100.0, "m2": 120.0, "Rooms": 3, "location": {"type": "Point", "coordinates": [-3.6789229, 40.4251403]}}, {"Street": "Piso en Palacio", "District": "centro", "Property_Type": "flat", "Price": 2800.0, "m2": 175.0, "Rooms": 2, "location": {"type": "Point", "coordinates": [-3.712553, 40.4076398]}}, {"Street": "\u00c1tico en calle Campomanes", "District": "centro", "Property_Type": "penthouse", "Price": 3000.0, "m2": 250.0, "Rooms": 4, "location": {"type": "Point", "coordinates": [-3.7092903, 40.4190155]}}, {"Street": "Apartamento en calle de Claudio Coello", "District": "salamanca", "Property_Type": "flat", "Price": 2500.0, "m2": 140.0, "Rooms": 3, "location": {"type": "Point", "coordinates": [-3.6863961, 40.4279491]}}, {"Street": "Apartamento en calle de N\u00fa\u00f1ez de Balboa, n\u00ba 31", "District": "salamanca", "Property_Type": "flat", "Price": 1500.0, "m2": 68.0, "Rooms": 1, "location": {"type": "Point", "coordinates": [-3.683122, 40.422782]}}, {"Street": "\u00c1tico en calle Doctor Esquerdo", "District": "retiro", "Property_Type": "penthouse", "Price": 1500.0, "m2": 150.0, "Rooms": 3, "location": {"type": "Point", "coordinates": [-3.6704044, 40.4071409]}}, {"Street": "Piso en Avenida del Talgo", "District": "moncloa", "Property_Type": "flat", "Price": 1250.0, "m2": 93.0, "Rooms": 2, "location": {"type": "Point", "coordinates": [-3.7843488, 40.4473406]}}, {"Street": "Apartamento en calle de Castell\u00f3, n\u00ba 67", "District": "salamanca", "Property_Type": "flat", "Price": 3900.0, "m2": 127.0, "Rooms": 3, "location": {"type": "Point", "coordinates": [-3.6804439, 40.4290432]}}, {"Street": "Apartamento en calle de Montesa, n\u00ba 43", "District": "salamanca", "Property_Type": "flat", "Price": 1500.0, "m2": 60.0, "Rooms": 2, "location": {"type": "Point", "coordinates": [-3.6742581, 40.4322108]}}, {"Street": "Apartamento en Centro", "District": "centro", "Property_Type": "flat", "Price": 1350.0, "m2": 67.0, "Rooms": 1, "location": {"type": "Point", "coordinates": [-3.696856, 40.424815]}}, {"Street": "Piso en calle Estebanez Calderon", "District": "tetuan", "Property_Type": "flat", "Price": 700.0, "m2": 34.0, "Rooms": 1, "location": {"type": "Point", "coordinates": [-3.6904614, 40.4634918]}}, {"Street": "Piso en Lista", "District": "salamanca", "Property_Type": "flat", "Price": 2000.0, "m2": 134.0, "Rooms": 4, "location": {"type": "Point", "coordinates": [-3.671107, 40.430508]}}, {"Street": "Piso en Nueva Espa\u00f1a", "District": "chamartin", "Property_Type": "flat", "Price": 3700.0, "m2": 270.0, "Rooms": 4, "location": {"type": "Point", "coordinates": [-3.67758, 40.45892]}}, {"Street": "Apartamento en calle de Hermosilla", "District": "salamanca", "Property_Type": "flat", "Price": 1750.0, "m2": 62.0, "Rooms": 2, "location": {"type": "Point", "coordinates": [-3.6738469, 40.4248681]}}, {"Street": "Piso en calle del Coraz\u00f3n de Mar\u00eda", "District": "chamartin", "Property_Type": "flat", "Price": 1300.0, "m2": 80.0, "Rooms": 3, "location": {"type": "Point", "coordinates": [-3.678289, 40.437085]}}, {"Street": "Piso en Salamanca - Recoletos", "District": "salamanca", "Property_Type": "flat", "Price": 2300.0, "m2": 120.0, "Rooms": 2, "location": {"type": "Point", "coordinates": [-3.6733793, 40.4296398]}}, {"Street": "Piso en Madrid, CL Castello", "District": "salamanca", "Property_Type": "flat", "Price": 1100.0, "m2": 70.0, "Rooms": 1, "location": {"type": "Point", "coordinates": [-3.6814977, 40.4277244]}}, {"Street": "Piso en Salamanca - Recoletos", "District": "salamanca", "Property_Type": "flat", "Price": 4500.0, "m2": 170.0, "Rooms": 3, "location": {"type": "Point", "coordinates": [-3.6733793, 40.4296398]}}, {"Street": "Piso en Alcalde Sainz de Baranda", "District": "", "Property_Type": "flat", "Price": 1300.0, "m2": 112.0, "Rooms": 3, "location": {"type": "Point", "coordinates": [-3.669415, 40.41614]}}, {"Street": "Apartamento en calle del Pr\u00edncipe de Vergara", "District": "salamanca", "Property_Type": "flat", "Price": 2500.0, "m2": 210.0, "Rooms": 4, "location": {"type": "Point", "coordinates": [-3.6789229, 40.4251403]}}, {"Street": "Chalet unifamiliar en Pinar del Rey", "District": "hortaleza", "Property_Type": "chalet", "Price": 5000.0, "m2": 500.0, "Rooms": 6, "location": {"type": "Point", "coordinates": [-3.6484898, 40.4706707]}}, {"Street": "\u00c1tico en calle de Fernando El Santo, n\u00ba 9", "District": "chamberi", "Property_Type": "penthouse", "Price": 4500.0, "m2": 290.0, "Rooms": 4, "location": {"type": "Point", "coordinates": [-3.6971889, 40.4193576]}}, {"Street": "Piso en calle del Pr\u00edncipe de Vergara", "District": "chamartin", "Property_Type": "flat", "Price": 2300.0, "m2": 118.0, "Rooms": 2, "location": {"type": "Point", "coordinates": [-3.679615, 40.434185]}}, {"Street": "Piso en Madrid, CL Castello", "District": "salamanca", "Property_Type": "flat", "Price": 1200.0, "m2": 70.0, "Rooms": 1, "location": {"type": "Point", "coordinates": [-3.6814977, 40.4277244]}}, {"Street": "Piso en Sol", "District": "centro", "Property_Type": "flat", "Price": 850.0, "m2": 40.0, "Rooms": 1, "location": {"type": "Point", "coordinates": [-3.7025212, 40.4166443]}}, {"Street": "Piso en R\u00edos Rosas", "District": "chamberi", "Property_Type": "flat", "Price": 3500.0, "m2": 168.0, "Rooms": 3, "location": {"type": "Point", "coordinates": [-3.7017574, 40.4419975]}}, {"Street": "Estudio en calle Donoso Cort\u00e9s, n\u00ba 80C", "District": "chamberi", "Property_Type": "studio", "Price": 800.0, "m2": 39.0, "Rooms": 1, "location": {"type": "Point", "coordinates": [-3.7150678, 40.4365763]}}, {"Street": "Piso en Salamanca", "District": "salamanca", "Property_Type": "flat", "Price": 1900.0, "m2": 121.0, "Rooms": 2, "location": {"type": "Point", "coordinates": [-5.668885299999999, 40.9693297]}}, {"Street": "Piso en calle Velazquez", "District": "salamanca", "Property_Type": "flat", "Price": 2200.0, "m2": 128.0, "Rooms": 2, "location": {"type": "Point", "coordinates": [-3.684074099999999, 40.4310187]}}, {"Street": "Apartamento en calle Chamberi", "District": "chamberi", "Property_Type": "flat", "Price": 950.0, "m2": 43.0, "Rooms": 1, "location": {"type": "Point", "coordinates": [-3.7091414, 40.4303238]}}, {"Street": "Piso en calle Diego Leon", "District": "salamanca", "Property_Type": "flat", "Price": 1950.0, "m2": 75.0, "Rooms": 2, "location": {"type": "Point", "coordinates": [-3.6830351, 40.4347815]}}, {"Street": "Casa pareada en calle de Almanzora", "District": "moncloa", "Property_Type": "flat", "Price": 3200.0, "m2": 276.0, "Rooms": 4, "location": {"type": "Point", "coordinates": [-3.7930036, 40.4584954]}}, {"Street": "Apartamento en calle de Goya", "District": "salamanca", "Property_Type": "flat", "Price": 3500.0, "m2": 210.0, "Rooms": 4, "location": {"type": "Point", "coordinates": [-3.6738469, 40.4248681]}}, {"Street": "Piso en calle Molino, n\u00ba 5", "District": "moncloa", "Property_Type": "flat", "Price": 1150.0, "m2": 80.0, "Rooms": 2, "location": {"type": "Point", "coordinates": [-3.7039037, 40.4231506]}}, {"Street": "Apartamento en Avenida Pio XII", "District": "chamartin", "Property_Type": "flat", "Price": 895.0, "m2": 65.0, "Rooms": 1, "location": {"type": "Point", "coordinates": [-3.680190899999999, 40.45888]}}, {"Street": "Piso en calle de Campoamor", "District": "centro", "Property_Type": "flat", "Price": 1300.0, "m2": 85.0, "Rooms": 2, "location": {"type": "Point", "coordinates": [-3.695857999999999, 40.426094]}}, {"Street": "Piso en Justicia-Chueca", "District": "centro", "Property_Type": "flat", "Price": 4015.0, "m2": 120.0, "Rooms": 3, "location": {"type": "Point", "coordinates": [-3.6989207, 40.4234293]}}, {"Street": "\u00c1tico en Avenida Burgos", "District": "chamartin", "Property_Type": "penthouse", "Price": 2700.0, "m2": 180.0, "Rooms": 3, "location": {"type": "Point", "coordinates": [-3.698045, 40.503742]}}, {"Street": "Piso en Salamanca - Recoletos", "District": "salamanca", "Property_Type": "flat", "Price": 7000.0, "m2": 471.0, "Rooms": 6, "location": {"type": "Point", "coordinates": [-3.6733793, 40.4296398]}}, {"Street": "Piso en A 3 Minutos de La Estaci\u00f3n de Metro Ibiza", "District": "retiro", "Property_Type": "flat", "Price": 2800.0, "m2": 80.0, "Rooms": 3, "location": {"type": "Point", "coordinates": [-3.40409, 40.2506]}}, {"Street": "Piso en Centro - Justicia - Chueca", "District": "centro", "Property_Type": "flat", "Price": 2100.0, "m2": 111.0, "Rooms": 2, "location": {"type": "Point", "coordinates": [-3.6969823, 40.4225798]}}, {"Street": "Estudio en calle de Maldonado", "District": "salamanca", "Property_Type": "studio", "Price": 970.0, "m2": 40.0, "Rooms": 1, "location": {"type": "Point", "coordinates": [-3.6801654, 40.43388909999999]}}, {"Street": "Apartamento en Salamanca", "District": "salamanca", "Property_Type": "flat", "Price": 1550.0, "m2": 72.0, "Rooms": 2, "location": {"type": "Point", "coordinates": [-5.663330999999999, 40.963884]}}, {"Street": "Piso en calle Costanilla de los \u00c1ngeles", "District": "centro", "Property_Type": "flat", "Price": 1900.0, "m2": 60.0, "Rooms": 2, "location": {"type": "Point", "coordinates": [-3.7082182, 40.4188261]}}, {"Street": "Apartamento en Centro", "District": "centro", "Property_Type": "flat", "Price": 1300.0, "m2": 53.0, "Rooms": 1, "location": {"type": "Point", "coordinates": [-3.696856, 40.424815]}}, {"Street": "Piso en calle de Pastora Imperio", "District": "chamartin", "Property_Type": "flat", "Price": 1900.0, "m2": 135.0, "Rooms": 3, "location": {"type": "Point", "coordinates": [-3.674384, 40.4817249]}}, {"Street": "Apartamento en calle Profesor Waksman", "District": "chamartin", "Property_Type": "flat", "Price": 1800.0, "m2": 69.0, "Rooms": 1, "location": {"type": "Point", "coordinates": [-3.6947215, 40.4587822]}}, {"Street": "Apartamento en calle Francos Rodriguez", "District": "tetuan", "Property_Type": "flat", "Price": 1250.0, "m2": 55.0, "Rooms": 1, "location": {"type": "Point", "coordinates": [-3.6993042, 40.4587417]}}, {"Street": "Piso en Castellana", "District": "salamanca", "Property_Type": "flat", "Price": 1400.0, "m2": 70.0, "Rooms": 1, "location": {"type": "Point", "coordinates": [-3.6891394, 40.4687536]}}, {"Street": "Piso en Recoletos", "District": "salamanca", "Property_Type": "flat", "Price": 2500.0, "m2": 120.0, "Rooms": 3, "location": {"type": "Point", "coordinates": [-3.6866377, 40.4238593]}}, {"Street": "Piso en Jer\u00f3nimos", "District": "retiro", "Property_Type": "flat", "Price": 2300.0, "m2": 160.0, "Rooms": 3, "location": {"type": "Point", "coordinates": [-3.6909767, 40.4145014]}}, {"Street": "Piso en Avenida General Per\u00f3n", "District": "tetuan", "Property_Type": "flat", "Price": 1450.0, "m2": 80.0, "Rooms": 2, "location": {"type": "Point", "coordinates": [-3.6993734, 40.4533446]}}, {"Street": "Piso en calle Bordadores", "District": "centro", "Property_Type": "flat", "Price": 1450.0, "m2": 95.0, "Rooms": 2, "location": {"type": "Point", "coordinates": [-3.707394, 40.416965]}}, {"Street": "Piso en calle Henri Dunant", "District": "chamartin", "Property_Type": "flat", "Price": 2100.0, "m2": 120.0, "Rooms": 2, "location": {"type": "Point", "coordinates": [-3.68417, 40.4601016]}}, {"Street": "Piso en calle Maestro Alonso, n\u00ba 17", "District": "salamanca", "Property_Type": "flat", "Price": 1650.0, "m2": 79.0, "Rooms": 3, "location": {"type": "Point", "coordinates": [-3.6639479, 40.4286357]}}, {"Street": "Apartamento en Plaza del \u00c1ngel", "District": "centro", "Property_Type": "flat", "Price": 950.0, "m2": 45.0, "Rooms": 1, "location": {"type": "Point", "coordinates": [-3.702483899999999, 40.4142325]}}, {"Street": "Apartamento en Salamanca", "District": "salamanca", "Property_Type": "flat", "Price": 1500.0, "m2": 65.0, "Rooms": 1, "location": {"type": "Point", "coordinates": [-5.663330999999999, 40.963884]}}, {"Street": "Piso en calle Secundino Zuazo", "District": "hortaleza", "Property_Type": "flat", "Price": 1600.0, "m2": 110.0, "Rooms": 3, "location": {"type": "Point", "coordinates": [-3.8938158, 40.40232049999999]}}, {"Street": "Piso en calle Guindos, n\u00ba 12", "District": "tetuan", "Property_Type": "flat", "Price": 920.0, "m2": 55.0, "Rooms": 2, "location": {"type": "Point", "coordinates": [-3.7003329, 40.4668947]}}, {"Street": "Piso en calle calle de La Cava Alta", "District": "centro", "Property_Type": "flat", "Price": 1290.0, "m2": 60.0, "Rooms": 1, "location": {"type": "Point", "coordinates": [-3.709804, 40.4120538]}}, {"Street": "D\u00faplex en Salamanca", "District": "salamanca", "Property_Type": "duplex", "Price": 1100.0, "m2": 66.0, "Rooms": 2, "location": {"type": "Point", "coordinates": [-5.665013999999999, 40.964849]}}, {"Street": "Apartamento en calle Corredera Baja de San Pablo", "District": "centro", "Property_Type": "flat", "Price": 2600.0, "m2": 146.0, "Rooms": 2, "location": {"type": "Point", "coordinates": [-3.7035898, 40.42274870000001]}}, {"Street": "Apartamento en calle de Cartagena", "District": "salamanca", "Property_Type": "flat", "Price": 2100.0, "m2": 166.0, "Rooms": 3, "location": {"type": "Point", "coordinates": [-3.6735424, 40.4395296]}}, {"Street": "Piso en calle del Divino Pastor", "District": "centro", "Property_Type": "flat", "Price": 1450.0, "m2": 88.0, "Rooms": 3, "location": {"type": "Point", "coordinates": [-3.7045119, 40.4287993]}}, {"Street": "Piso en Lista", "District": "salamanca", "Property_Type": "flat", "Price": 2200.0, "m2": 110.0, "Rooms": 3, "location": {"type": "Point", "coordinates": [-3.671107, 40.430508]}}, {"Street": "Apartamento en Plaza de Chueca", "District": "centro", "Property_Type": "flat", "Price": 1200.0, "m2": 56.0, "Rooms": 2, "location": {"type": "Point", "coordinates": [-3.6994466, 40.4228457]}}, {"Street": "Apartamento en calle L\u00f3pez de Hoyos", "District": "chamartin", "Property_Type": "flat", "Price": 1200.0, "m2": 88.0, "Rooms": 2, "location": {"type": "Point", "coordinates": [-3.6798982, 40.4404313]}}, {"Street": "Apartamento en Salamanca", "District": "salamanca", "Property_Type": "flat", "Price": 1700.0, "m2": 95.0, "Rooms": 3, "location": {"type": "Point", "coordinates": [-5.663330999999999, 40.963884]}}, {"Street": "Apartamento en calle de Zurbano", "District": "chamberi", "Property_Type": "flat", "Price": 1200.0, "m2": 33.0, "Rooms": 1, "location": {"type": "Point", "coordinates": [-3.6933088, 40.430145]}}, {"Street": "Chalet en Casaquemada", "District": "moncloa", "Property_Type": "chalet", "Price": 18000.0, "m2": 1190.0, "Rooms": 1, "location": {"type": "Point", "coordinates": [-3.49537, 40.28337]}}, {"Street": "D\u00faplex en Centro", "District": "centro", "Property_Type": "duplex", "Price": 2500.0, "m2": 125.0, "Rooms": 2, "location": {"type": "Point", "coordinates": [-3.70275, 40.4183083]}}, {"Street": "Piso en Fuente del Berro", "District": "salamanca", "Property_Type": "flat", "Price": 1100.0, "m2": 68.0, "Rooms": 1, "location": {"type": "Point", "coordinates": [-3.6681159, 40.4267599]}}, {"Street": "Piso en calle Mayor", "District": "centro", "Property_Type": "flat", "Price": 1125.0, "m2": 72.0, "Rooms": 1, "location": {"type": "Point", "coordinates": [-3.7074009, 40.415511]}}, {"Street": "D\u00faplex en calle Corredera Baja de San Pablo", "District": "centro", "Property_Type": "duplex", "Price": 2400.0, "m2": 201.0, "Rooms": 2, "location": {"type": "Point", "coordinates": [-3.7037051, 40.4225791]}}, {"Street": "Piso en calle Nu\u00f1ez de Balboa", "District": "salamanca", "Property_Type": "flat", "Price": 1435.0, "m2": 111.0, "Rooms": 1, "location": {"type": "Point", "coordinates": [-3.6821721, 40.4281377]}}, {"Street": "\u00c1tico en calle de G\u00e9nova, n\u00ba 10", "District": "centro", "Property_Type": "penthouse", "Price": 3500.0, "m2": 200.0, "Rooms": 3, "location": {"type": "Point", "coordinates": [-3.6947014, 40.4269142]}}, {"Street": "Piso en calle Sirio", "District": "retiro", "Property_Type": "flat", "Price": 1500.0, "m2": 90.0, "Rooms": 2, "location": {"type": "Point", "coordinates": [-3.6698622, 40.4078919]}}, {"Street": "Casa adosada en Camino del Cura", "District": "hortaleza", "Property_Type": "flat", "Price": 4200.0, "m2": 285.0, "Rooms": 4, "location": {"type": "Point", "coordinates": [-3.6497893, 40.5108781]}}, {"Street": "Piso en Avenida Infanta Mercedes", "District": "tetuan", "Property_Type": "flat", "Price": 950.0, "m2": 45.0, "Rooms": 1, "location": {"type": "Point", "coordinates": [-3.6994669, 40.4529024]}}, {"Street": "Piso en calle Velayos", "District": "moncloa", "Property_Type": "flat", "Price": 2100.0, "m2": 190.0, "Rooms": 5, "location": {"type": "Point", "coordinates": [-3.7257783, 40.4658453]}}, {"Street": "Piso en calle del Coraz\u00f3n de Mar\u00eda", "District": "chamartin", "Property_Type": "flat", "Price": 1580.0, "m2": 160.0, "Rooms": 4, "location": {"type": "Point", "coordinates": [-3.678289, 40.437085]}}, {"Street": "\u00c1tico en Salamanca", "District": "salamanca", "Property_Type": "penthouse", "Price": 1850.0, "m2": 105.0, "Rooms": 1, "location": {"type": "Point", "coordinates": [-5.665013999999999, 40.964849]}}, {"Street": "Apartamento en calle Naranjo", "District": "tetuan", "Property_Type": "flat", "Price": 950.0, "m2": 42.0, "Rooms": 1, "location": {"type": "Point", "coordinates": [-3.6986787, 40.4632134]}}, {"Street": "\u00c1tico en calle Fernando El Santo", "District": "chamberi", "Property_Type": "penthouse", "Price": 3500.0, "m2": 135.0, "Rooms": 1, "location": {"type": "Point", "coordinates": [-3.6925582, 40.4281377]}}, {"Street": "Piso en calle Jorge Juan", "District": "salamanca", "Property_Type": "flat", "Price": 1300.0, "m2": 67.0, "Rooms": 2, "location": {"type": "Point", "coordinates": [-3.6796249, 40.4236343]}}, {"Street": "Piso en Sanchinarro", "District": "hortaleza", "Property_Type": "flat", "Price": 1200.0, "m2": 147.0, "Rooms": 3, "location": {"type": "Point", "coordinates": [-3.6508781, 40.4898353]}}, {"Street": "Apartamento en Salamanca", "District": "salamanca", "Property_Type": "flat", "Price": 1400.0, "m2": 70.0, "Rooms": 1, "location": {"type": "Point", "coordinates": [-5.663330999999999, 40.963884]}}, {"Street": "Apartamento en calle de Serrano", "District": "salamanca", "Property_Type": "flat", "Price": 1700.0, "m2": 128.0, "Rooms": 3, "location": {"type": "Point", "coordinates": [-3.6900327, 40.4227751]}}, {"Street": "Piso en Avenida Valladolid", "District": "moncloa", "Property_Type": "flat", "Price": 1000.0, "m2": 80.0, "Rooms": 3, "location": {"type": "Point", "coordinates": [-3.43505, 40.25482]}}, {"Street": "Apartamento en Salamanca", "District": "salamanca", "Property_Type": "flat", "Price": 1800.0, "m2": 125.0, "Rooms": 3, "location": {"type": "Point", "coordinates": [-5.663330999999999, 40.963884]}}, {"Street": "Piso en Lista", "District": "salamanca", "Property_Type": "flat", "Price": 3500.0, "m2": 165.0, "Rooms": 3, "location": {"type": "Point", "coordinates": [-3.671107, 40.430508]}}, {"Street": "Piso en calle Agustina de Aragon", "District": "salamanca", "Property_Type": "flat", "Price": 2000.0, "m2": 110.0, "Rooms": 2, "location": {"type": "Point", "coordinates": [-3.691814, 40.199228]}}, {"Street": "Apartamento en calle del Maestro Alonso", "District": "salamanca", "Property_Type": "flat", "Price": 1500.0, "m2": 92.0, "Rooms": 3, "location": {"type": "Point", "coordinates": [-3.666669, 40.429426]}}, {"Street": "Apartamento en Cortes-Huertas", "District": "centro", "Property_Type": "flat", "Price": 1100.0, "m2": 52.0, "Rooms": 1, "location": {"type": "Point", "coordinates": [-3.7007888, 40.4139696]}}, {"Street": "Apartamento en calle del Barco", "District": "centro", "Property_Type": "flat", "Price": 3000.0, "m2": 217.0, "Rooms": 2, "location": {"type": "Point", "coordinates": [-3.7021522, 40.4236047]}}, {"Street": "Piso en Cuatro Caminos", "District": "tetuan", "Property_Type": "flat", "Price": 2300.0, "m2": 172.0, "Rooms": 4, "location": {"type": "Point", "coordinates": [-3.7013532, 40.4469349]}}, {"Street": "Piso en calle calle Lope de Vega", "District": "centro", "Property_Type": "flat", "Price": 1450.0, "m2": 40.0, "Rooms": 1, "location": {"type": "Point", "coordinates": [-3.6983821, 40.4138922]}}, {"Street": "Apartamento en calle Miguel Servet", "District": "centro", "Property_Type": "flat", "Price": 745.0, "m2": 45.0, "Rooms": 1, "location": {"type": "Point", "coordinates": [-3.7015761, 40.4060956]}}, {"Street": "Piso en calle Nu\u00f1ez de Balboa", "District": "salamanca", "Property_Type": "flat", "Price": 3100.0, "m2": 211.0, "Rooms": 4, "location": {"type": "Point", "coordinates": [-3.6821721, 40.4281377]}}, {"Street": "Piso en calle Hernani, n\u00ba 29", "District": "tetuan", "Property_Type": "flat", "Price": 1300.0, "m2": 82.0, "Rooms": 3, "location": {"type": "Point", "coordinates": [-3.7008012, 40.4483608]}}, {"Street": "Piso en calle Reyes Magos, n\u00ba 18", "District": "retiro", "Property_Type": "flat", "Price": 3000.0, "m2": 185.0, "Rooms": 5, "location": {"type": "Point", "coordinates": [-3.6757563, 40.4102043]}}, {"Street": "Piso en Chamber\u00ed - Almagro", "District": "chamberi", "Property_Type": "flat", "Price": 3800.0, "m2": 194.0, "Rooms": 3, "location": {"type": "Point", "coordinates": [-3.6970244, 40.43232270000001]}}, {"Street": "Apartamento en calle de La Ballesta", "District": "centro", "Property_Type": "flat", "Price": 1100.0, "m2": 35.0, "Rooms": 2, "location": {"type": "Point", "coordinates": [-3.7030984, 40.4227008]}}, {"Street": "Piso en calle Acuerdo", "District": "centro", "Property_Type": "flat", "Price": 2400.0, "m2": 100.0, "Rooms": 4, "location": {"type": "Point", "coordinates": [-3.7076591, 40.4294812]}}, {"Street": "\u00c1tico en calle Don Ramon de La Cruz", "District": "salamanca", "Property_Type": "penthouse", "Price": 1900.0, "m2": 121.0, "Rooms": 2, "location": {"type": "Point", "coordinates": [-3.6804439, 40.4290432]}}, {"Street": "Piso en Aravaca", "District": "moncloa", "Property_Type": "flat", "Price": 2000.0, "m2": 140.0, "Rooms": 2, "location": {"type": "Point", "coordinates": [-3.7843488, 40.4473406]}}, {"Street": "Apartamento en calle de Guzm\u00e1n El Bueno", "District": "chamberi", "Property_Type": "flat", "Price": 2200.0, "m2": 110.0, "Rooms": 4, "location": {"type": "Point", "coordinates": [-3.7145562, 40.4338081]}}, {"Street": "Piso en calle Ferraz", "District": "moncloa", "Property_Type": "flat", "Price": 2800.0, "m2": 178.0, "Rooms": 3, "location": {"type": "Point", "coordinates": [-3.7198331, 40.42857540000001]}}, {"Street": "Piso en Valdebebas-Valdefuentes", "District": "hortaleza", "Property_Type": "flat", "Price": 1750.0, "m2": 148.0, "Rooms": 3, "location": {"type": "Point", "coordinates": [-3.6163346, 40.482641]}}, {"Street": "Apartamento en calle Maestro Alonso", "District": "salamanca", "Property_Type": "flat", "Price": 1500.0, "m2": 98.0, "Rooms": 3, "location": {"type": "Point", "coordinates": [-3.666669, 40.429426]}}, {"Street": "Casa pareada en calle calle del Madrigal", "District": "moncloa", "Property_Type": "flat", "Price": 5900.0, "m2": 567.0, "Rooms": 6, "location": {"type": "Point", "coordinates": [-3.7271514, 40.46275620000001]}}, {"Street": "Piso en Madrid, CL Lagasca", "District": "salamanca", "Property_Type": "flat", "Price": 1900.0, "m2": 129.0, "Rooms": 3, "location": {"type": "Point", "coordinates": [-3.684739899999999, 40.4333633]}}, {"Street": "Piso en calle de Alcal\u00e1", "District": "salamanca", "Property_Type": "flat", "Price": 1200.0, "m2": 60.0, "Rooms": 3, "location": {"type": "Point", "coordinates": [-3.646351, 40.43412060000001]}},